City_ID,City,Lat,Lng,Max Temp,Humidity,Cloudiness,Wind Speed,Country,Date
0,maceio,-9.6658,-35.7353,25.69,88,20,2.06,BR,1712371283
1,edinburgh of the seven seas,-37.0676,-12.3116,18.82,93,87,11.38,SH,1712371346
2,lompoc,34.6391,-120.4579,10.33,80,0,5.14,US,1712371346
3,stanley,54.868,-1.6985,10.95,94,75,4.63,GB,1712371328
4,bredasdorp,-34.5322,20.0403,14.97,79,100,7.58,ZA,1712371347
5,kourou,5.1552,-52.6478,28.03,87,100,3.17,GF,1712371347
6,tiksi,71.6872,128.8694,-21.47,95,97,2.07,RU,1712371347
7,iringa,-7.7667,35.7,16.05,93,92,1.98,TZ,1712371347
8,polyarnyy,69.1989,33.4478,-8.81,84,100,6.33,RU,1712371347
9,ilulissat,69.2167,-51.1,-5.99,49,100,5.66,GL,1712371347
10,opuwo,-18.0607,13.84,22.77,66,95,2.39,NA,1712371347
11,st. john's,47.5649,-52.7093,-0.68,95,100,6.17,CA,1712371348
12,sitka,57.0531,-135.33,5.94,75,100,3.6,US,1712371348
13,kandahar,31.0,65.75,18.31,18,0,0.47,AF,1712371348
14,alofi,-19.0595,-169.9187,28.94,74,40,5.14,NU,1712371348
15,lima,-12.0432,-77.0282,24.39,76,20,7.2,PE,1712371086
16,abu ghurayb,33.3083,44.185,19.97,42,0,4.63,IQ,1712371348
17,longyearbyen,78.2186,15.6401,-23.09,70,20,2.06,SJ,1712371348
18,olyokminsk,60.3736,120.4264,-15.44,61,100,4.64,RU,1712371349
19,yellowknife,62.456,-114.3525,-0.71,55,20,4.63,CA,1712371138
20,tabas,33.5959,56.9244,18.12,22,0,1.03,IR,1712371349
21,porto novo,6.4965,2.6036,29.9,84,97,0.53,BJ,1712371349
22,qaqortoq,60.7167,-46.0333,-7.43,70,1,3.62,GL,1712371349
23,san antonio de pale,-1.4014,5.6325,28.32,76,100,2.74,GQ,1712371349
24,ancud,-41.8697,-73.8203,12.34,85,97,2.49,CL,1712371349
25,mendi,-6.1761,143.6513,19.82,73,100,1.32,PG,1712371350
26,umm kaddadah,13.6017,26.6876,26.52,14,100,7.66,SD,1712371350
27,enewetak,11.3474,162.3373,27.33,77,90,9.3,MH,1712371350
28,puerto natales,-51.7236,-72.4875,11.41,69,92,6.82,CL,1712371350
29,olonkinbyen,70.9221,-8.7187,-6.82,63,100,6.68,SJ,1712371350
30,afaahiti,-17.75,-149.2833,28.93,82,39,3.2,PF,1712371350
31,tabou,4.423,-7.3528,26.29,88,14,1.96,CI,1712371350
32,rio grande,-32.035,-52.0986,14.97,68,0,3.27,BR,1712371226
33,nyurba,63.2842,118.3319,-14.83,81,100,2.48,RU,1712371351
34,port-aux-francais,-49.35,70.2167,8.98,97,100,13.29,TF,1712371351
35,papatowai,-46.5619,169.4708,13.84,69,83,4.02,NZ,1712371351
36,uturoa,-16.7333,-151.4333,29.22,73,99,2.89,PF,1712371351
37,bliss corner,41.6118,-70.9384,6.08,80,85,7.6,US,1712371351
38,invercargill,-46.4,168.35,13.34,83,79,4.47,NZ,1712371351
39,adamstown,-25.066,-130.1015,22.13,66,73,2.62,PN,1712371352
40,ambon,-3.6954,128.1814,32.6,66,40,2.57,ID,1712371352
41,madinat ash shamal,26.1293,51.2009,24.28,40,0,3.2,QA,1712371352
42,ta`u,-14.2336,-169.5144,28.75,76,100,2.5,AS,1712371352
43,two rivers,44.1539,-87.5693,4.07,68,0,1.34,US,1712371083
44,birao,10.2849,22.7882,28.64,51,100,3.12,CF,1712371352
45,bonthe,7.5264,-12.505,25.82,88,100,1.25,SL,1712371352
46,badger,64.8,-147.5333,2.93,77,100,0.0,US,1712371352
47,waitangi,-43.9535,-176.5597,12.68,80,95,3.13,NZ,1712371352
48,blackmans bay,-43.0167,147.3167,21.52,55,3,2.24,AU,1712371353
49,avarua,-21.2078,-159.775,28.03,78,100,2.57,CK,1712371353
50,fort bragg,35.139,-79.006,11.91,44,0,3.6,US,1712371353
51,rawson,-43.3002,-65.1023,19.55,29,0,9.41,AR,1712371353
52,lerwick,60.1545,-1.1494,5.0,72,100,10.13,GB,1712371353
53,georgetown,5.4112,100.3354,31.96,66,20,3.6,MY,1712371237
54,ulladulla,-35.35,150.4667,24.32,71,37,3.61,AU,1712371353
55,lebu,-37.6167,-73.65,11.53,94,5,3.54,CL,1712371354
56,clarksdale,34.2001,-90.5709,13.28,67,2,3.6,US,1712371354
57,punta arenas,-53.15,-70.9167,12.06,66,40,11.83,CL,1712371276
58,chakia,26.4167,85.05,33.83,13,62,4.35,IN,1712371354
59,princeville,45.7668,-61.2985,2.17,97,100,4.12,CA,1712371354
60,lihue,21.9789,-159.3672,25.58,75,100,10.29,US,1712371189
61,riyadh,24.6877,46.7219,17.08,21,61,2.5,SA,1712371201
62,saynshand,44.8824,110.1163,11.88,30,4,5.92,MN,1712371354
63,grytviken,-54.2811,-36.5092,1.93,80,76,0.99,GS,1712371355
64,porto murtinho,-21.6989,-57.8825,27.67,73,99,2.05,BR,1712371237
65,sergeyevka,53.88,67.4158,3.75,96,97,2.47,KZ,1712371355
66,hawaiian paradise park,19.5933,-154.9731,22.1,90,100,1.54,US,1712371355
67,selfoss,63.9331,-20.9971,-4.42,51,0,5.47,IS,1712371355
68,eenhana,-17.4667,16.3333,18.94,85,86,2.43,NA,1712371355
69,vernon,50.2581,-119.2691,10.34,75,98,2.06,CA,1712371168
70,nema,57.5067,50.5011,-8.47,87,46,4.24,RU,1712371356
71,carnarvon,-24.8667,113.6333,27.71,49,0,6.97,AU,1712371356
72,hadibu,12.65,54.0333,26.27,70,6,2.55,YE,1712371356
73,hrazdan,40.4975,44.7662,4.15,90,98,2.96,AM,1712371356
74,machico,32.7,-16.7667,18.17,80,40,3.09,PT,1712371356
75,leua,48.2156,18.6071,14.72,87,100,1.53,SK,1712371356
76,kingston,17.997,-76.7936,28.53,77,20,4.63,JM,1712371336
77,aitape,-3.1374,142.3475,29.36,78,61,3.06,PG,1712371356
78,isafjordur,66.0755,-23.124,-7.67,72,58,3.08,IS,1712371357
79,west island,-12.1568,96.8225,29.99,74,40,4.63,CC,1712371357
80,faridkot,30.6667,74.75,26.78,13,0,1.58,IN,1712371357
81,yabelo,4.8833,38.0833,15.11,89,40,2.16,ET,1712371357
82,bata,1.8639,9.7658,25.83,84,100,1.93,GQ,1712371357
83,margaret river,-33.95,115.0667,26.46,32,0,2.33,AU,1712371261
84,puri,19.8,85.85,28.29,69,1,3.79,IN,1712371357
85,greymouth,-42.4667,171.2,14.69,65,1,2.36,NZ,1712371358
86,chingirlau,51.095,54.0814,10.4,67,100,0.69,KZ,1712371358
87,kuqa,41.7278,82.9364,10.17,46,98,3.0,CN,1712371159
88,atafu village,-8.5421,-172.5159,29.51,68,98,2.16,TK,1712371358
89,celestun,20.8667,-90.4,23.49,70,18,6.9,MX,1712371359
90,la passe,45.5549,-0.8967,16.13,73,71,12.32,FR,1712371359
91,berezovyy,51.6667,135.7,8.16,46,100,1.38,RU,1712371359
92,fale old settlement,-9.3852,-171.2468,29.69,70,80,2.61,TK,1712371359
93,iqaluit,63.7506,-68.5145,-8.15,93,100,1.54,CA,1712371359
94,ciudad melchor muzquiz,27.8833,-101.5167,24.1,38,100,5.71,MX,1712371359
95,dazhou,31.2159,107.5009,15.58,73,100,2.1,CN,1712371359
96,tolanaro,-25.0319,46.9987,22.04,88,20,2.06,MG,1712371360
97,hamilton,39.1834,-84.5333,5.96,79,0,0.89,US,1712371226
98,muisne,0.6,-80.0333,25.58,88,100,1.38,EC,1712371360
99,ushuaia,-54.8,-68.3,11.81,54,0,5.66,AR,1712371071
100,el granada,37.5027,-122.4694,11.88,69,75,14.4,US,1712371342
101,sola,-13.8833,167.55,27.95,80,94,7.08,VU,1712371360
102,bilibino,68.0546,166.4372,-9.97,74,15,0.1,RU,1712371360
103,kerikeri,-35.2268,173.9474,19.36,76,64,4.21,NZ,1712371361
104,colonia,50.9333,6.95,15.41,83,0,2.57,DE,1712371275
105,gadzhiyevo,69.2551,33.3362,-9.16,86,100,6.01,RU,1712371361
106,arraial do cabo,-22.9661,-42.0278,23.89,83,0,1.66,BR,1712371069
107,port mathurin,-19.6833,63.4167,26.73,80,67,7.26,MU,1712371361
108,bethel,41.3712,-73.414,6.17,62,100,4.63,US,1712371361
109,nogliki,51.8333,143.1667,3.52,75,0,4.02,RU,1712371361
110,colares,38.7992,-9.4469,17.82,96,100,3.58,PT,1712371361
111,port elizabeth,-33.918,25.5701,16.84,74,100,0.89,ZA,1712371362
112,tebingtinggi,3.3285,99.1625,31.61,62,49,1.97,ID,1712371197
113,coquimbo,-29.9533,-71.3436,13.85,100,0,1.03,CL,1712371252
114,sao felix do xingu,-6.6447,-51.995,23.1,99,100,0.73,BR,1712371362
115,pulandian,39.3953,121.9669,18.98,37,84,6.68,CN,1712371159
116,salinopolis,-0.6136,-47.3561,26.88,85,63,5.37,BR,1712371362
117,saldanha,-33.0117,17.9442,13.03,82,9,6.83,ZA,1712371362
118,cestos city,5.46,-9.5828,26.55,89,100,2.19,LR,1712371362
119,tazovsky,67.4667,78.7,-20.46,89,11,6.21,RU,1712371362
120,thompson,55.7435,-97.8558,5.09,52,20,2.57,CA,1712371363
121,tapes,-30.6733,-51.3958,19.47,69,0,3.43,BR,1712371363
122,bulata,9.8599,122.4016,31.21,60,81,5.53,PH,1712371363
123,krasnyy kut,50.95,46.9667,5.58,92,100,2.82,RU,1712371363
124,esikhaleni,-28.871,31.8996,20.97,82,96,4.18,ZA,1712371363
125,puerto ayora,-0.7393,-90.3518,25.31,95,88,3.13,EC,1712371363
126,ormara,25.2088,64.6357,24.64,69,0,6.15,PK,1712371363
127,fortuna,40.5982,-124.1573,9.81,77,75,4.63,US,1712371243
128,whitehorse,60.7161,-135.0538,1.72,86,100,4.63,CA,1712371364
129,vila velha,-20.3297,-40.2925,26.97,90,40,2.57,BR,1712370607
130,daru,-9.0763,143.2092,29.53,72,100,3.55,PG,1712371364
131,san julian,21.0167,-102.1667,18.97,24,100,4.95,MX,1712371364
132,dudinka,69.4058,86.1778,-8.51,93,100,12.52,RU,1712371364
133,college,64.8569,-147.8028,2.97,73,75,0.0,US,1712371364
134,pisco,-13.7,-76.2167,22.03,83,0,6.69,PE,1712371364
135,haiku-pauwela,20.9219,-156.3051,23.06,81,75,9.26,US,1712371364
136,san patricio,28.017,-97.5169,22.14,73,100,6.86,US,1712371365
137,kodiak,57.79,-152.4072,5.73,49,0,8.75,US,1712371365
138,north bend,43.4065,-124.2243,9.36,76,100,3.6,US,1712371365
139,shahkot,31.0775,75.3372,26.48,14,0,2.27,IN,1712371365
140,jamestown,42.097,-79.2353,2.77,95,100,5.14,US,1712371071
141,nar'yan-mar,67.6713,53.087,-13.27,92,38,4.92,RU,1712371365
142,tawau,4.2498,117.8871,30.07,77,91,1.32,MY,1712371365
143,katsuura,35.1333,140.3,14.01,94,100,5.15,JP,1712371366
144,keflavik,64.0049,-22.5624,-1.76,64,0,3.6,IS,1712371366
145,ouarzazat,30.9189,-6.8934,17.16,17,0,2.06,MA,1712371366
146,vega de alatorre,20.0333,-96.6333,23.26,84,45,5.72,MX,1712371366
147,palmer,42.1584,-72.3287,4.52,74,61,2.58,US,1712371073
148,hobyo,5.3505,48.5268,28.02,71,77,5.0,SO,1712371366
149,rikaze,29.25,88.8833,7.76,27,100,1.24,CN,1712371366
150,udachny,66.4167,112.4,-20.31,87,29,5.11,RU,1712371366
151,wladyslawowo,54.7909,18.4009,12.23,85,41,10.1,PL,1712371287
152,wajir,1.7471,40.0573,25.81,82,100,1.39,KE,1712371367
153,wynyard,-41.0,145.7167,17.59,77,100,5.61,AU,1712371367
154,albany,42.6001,-73.9662,3.82,79,98,3.58,US,1712371238
155,nadym,65.5333,72.5167,-18.35,87,7,8.47,RU,1712371183
156,kamiiso,41.8167,140.65,11.21,43,0,2.06,JP,1712371367
157,fort mcmurray,56.7268,-111.381,1.77,100,100,2.06,CA,1712371308
158,aasiaat,68.7098,-52.8699,-12.83,94,100,5.24,GL,1712371367
159,wailua homesteads,22.0669,-159.378,25.24,76,100,10.29,US,1712371368
160,kapa'a,22.0752,-159.319,25.99,76,100,10.29,US,1712371264
161,bathsheba,13.2167,-59.5167,27.34,83,40,7.72,BB,1712371368
162,east london,-33.0153,27.9116,17.18,78,100,2.57,ZA,1712371368
163,kushiro,42.975,144.3747,10.53,37,0,7.2,JP,1712371368
164,bambanglipuro,-7.95,110.2833,29.73,65,68,2.01,ID,1712371368
165,nikolayevsk-on-amure,53.1406,140.73,7.45,60,88,2.71,RU,1712371368
166,corn island,12.1694,-83.0418,27.98,79,16,8.3,NI,1712371369
167,faya-largeau,17.9257,19.1043,27.55,12,13,10.0,TD,1712371369
168,vorgashor,67.5833,63.95,-14.62,91,100,8.72,RU,1712371369
169,copala,16.65,-98.9833,24.34,75,1,0.98,MX,1712371369
170,prabumulih,-3.45,104.25,24.83,96,100,1.11,ID,1712371369
171,altinekin,38.3078,32.8686,7.31,68,59,2.43,TR,1712371369
172,codrington,-38.2667,141.9667,15.98,77,100,1.31,AU,1712371369
173,roma,43.2128,-75.4557,3.79,90,100,5.14,US,1712371358
174,santa cruz,-17.8,-63.1667,25.7,94,80,2.57,BO,1712371175
175,rudnichnyy,59.617,52.4703,-7.82,58,19,2.97,RU,1712371370
176,kayangel,8.0823,134.7173,28.0,72,45,9.69,PW,1712371370
177,koulikoro,14.0,-7.75,30.4,25,89,2.79,ML,1712371370
178,arno,60.1167,18.6333,-0.12,100,100,2.17,SE,1712371370
179,la foa,-21.7108,165.8276,27.85,66,100,2.11,NC,1712371370
180,mirnyy,62.5353,113.9611,-18.76,83,100,3.58,RU,1712371370
181,talnakh,69.4865,88.3972,-8.77,94,100,7.9,RU,1712371371
182,waynesboro,38.0685,-78.8895,3.83,68,40,1.54,US,1712371371
183,chonchi,-42.6128,-73.8092,11.73,93,67,1.15,CL,1712371371
184,leava,-14.3,-178.1667,28.33,76,100,4.22,WF,1712371371
185,pangody,65.85,74.4859,-17.28,88,9,7.34,RU,1712371371
186,crane,31.3974,-102.3501,22.82,33,41,13.97,US,1712371371
187,sao joao da barra,-21.6403,-41.0511,24.27,82,0,2.09,BR,1712371371
188,hammerfest,70.6634,23.6821,-8.75,73,0,1.54,NO,1712371372
189,hermanus,-34.4187,19.2345,13.78,81,92,8.1,ZA,1712371372
190,khandyga,62.6667,135.6,-1.5,87,100,1.23,RU,1712371372
191,port saint john's,-31.6229,29.5448,17.98,86,100,1.8,ZA,1712371372
192,rangkasbitung,-6.3591,106.2494,30.21,75,83,2.46,ID,1712371372
193,cartagena,10.3997,-75.5144,27.79,83,40,3.09,CO,1712371113
194,usogorsk,63.4106,48.6872,-15.84,99,73,1.41,RU,1712371372
195,centar zupa,41.4681,20.5589,9.79,82,9,0.8,MK,1712371372
196,kruisfontein,-34.0033,24.7314,14.38,72,100,4.18,ZA,1712371373
197,aykhal,66.0,111.5,-20.76,90,68,4.47,RU,1712371373
198,constantia,44.1833,28.65,8.38,66,6,2.11,RO,1712371097
199,qamdo,31.1667,97.2333,0.95,82,100,2.29,CN,1712371373
200,dalandzadgad,43.5708,104.425,10.41,20,3,1.43,MN,1712371373
201,la paz,-16.5,-68.15,11.43,76,40,1.03,BO,1712370878
202,brisas de zicatela,15.8369,-97.0419,26.29,89,0,2.06,MX,1712371373
203,lagos,6.5833,3.75,28.18,86,100,1.02,NG,1712371104
204,grantsville,40.5999,-112.4644,4.7,61,75,3.09,US,1712371237
205,muscat,23.6139,58.5922,21.01,40,0,2.49,OM,1712371280
206,mineiros,-17.5694,-52.5511,21.14,85,44,0.96,BR,1712371374
207,caleta de carquin,-11.0925,-77.6267,22.25,86,99,3.82,PE,1712371374
208,champerico,14.3,-91.9167,28.61,74,62,1.14,GT,1712371374
209,kulhudhuffushi,6.6221,73.07,29.35,74,47,3.67,MV,1712371374
210,touros,-5.1989,-35.4608,25.73,89,8,2.41,BR,1712371374
211,petropavlovsk-kamchatsky,53.0452,158.6483,2.33,74,20,6.71,RU,1712371374
212,holualoa,19.6228,-155.9522,24.91,88,40,6.69,US,1712371242
213,vilyuchinsk,52.9306,158.4028,3.15,69,28,4.41,RU,1712371375
214,whangarei,-35.7317,174.3239,16.66,94,96,3.12,NZ,1712371375
215,beneditinos,-5.45,-42.3667,23.33,98,61,1.21,BR,1712371375
216,tateyama,34.9833,139.8667,13.96,88,75,2.57,JP,1712371375
217,bac lieu,9.285,105.7244,30.83,54,75,5.44,VN,1712371375
218,meiningen,50.5679,10.4152,14.9,94,100,1.96,DE,1712371375
219,maxixe,-23.8597,35.3472,24.29,85,100,0.81,MZ,1712371375
220,ribeira grande,38.5167,-28.7,12.65,78,8,2.68,PT,1712371376
221,kyzyl-suu,42.3414,78.0056,8.51,36,39,0.61,KG,1712371376
222,tarauaca,-8.1614,-70.7656,25.27,82,78,1.03,BR,1712371376
223,nagqu,31.5,92.0,1.78,31,65,8.94,CN,1712371376
224,nemuro,43.3236,145.575,5.46,60,0,7.49,JP,1712371376
225,neryungri,56.6709,124.6491,-12.67,90,100,8.46,RU,1712371376
226,yinchuan,38.4681,106.2731,15.78,29,41,2.12,CN,1712371376
227,laminusa,5.5549,120.9136,27.81,79,99,3.87,PH,1712371377
228,bambang,16.3833,121.1,32.49,43,13,2.77,PH,1712371377
229,huarmey,-10.0681,-78.1522,22.78,86,98,3.76,PE,1712371377
230,utrik,11.2278,169.8474,27.13,75,99,8.49,MH,1712371377
231,pechora,65.1472,57.2244,-11.19,91,99,4.92,RU,1712371377
232,dubbo,-32.25,148.6167,20.07,77,75,5.14,AU,1712371377
233,le port,-20.9373,55.2919,25.0,83,1,2.92,RE,1712371377
234,galesong,-5.3166,119.3661,31.01,74,17,2.49,ID,1712371378
235,arbroath,56.5632,-2.5874,7.28,96,100,4.01,GB,1712371378
236,santa ana,33.7456,-117.8678,12.58,60,0,7.72,US,1712371155
237,midvagur,62.0511,-7.1939,3.46,56,100,11.83,FO,1712371378
238,hargeysa,9.56,44.065,21.04,74,10,0.9,SO,1712371378
239,kuusamo,65.9667,29.1833,-8.98,86,100,3.09,FI,1712371378
240,laguna,38.421,-121.4238,10.51,80,0,3.09,US,1712371378
241,cururupu,-1.8283,-44.8683,23.76,100,83,0.34,BR,1712371378
242,ouadda,8.0777,22.4007,21.78,85,100,2.26,CF,1712371378
243,queenstown,-31.8976,26.8753,11.05,90,100,3.98,ZA,1712371379
244,minas de marcona,-15.2119,-75.1103,17.25,90,91,4.82,PE,1712371379
245,zelenoborskiy,66.845,32.3622,-8.19,96,100,2.73,RU,1712371379
246,bikenibeu village,1.3673,173.1241,30.98,79,40,5.14,KI,1712371379
247,kristiansund,63.1115,7.732,1.36,69,100,0.0,NO,1712371379
248,tucuma,-0.1833,-50.05,25.43,91,83,3.16,BR,1712371379
249,susuman,62.7833,148.1667,-12.79,74,49,0.89,RU,1712371379
250,tralee,52.2704,-9.7026,12.41,87,100,11.13,IE,1712371379
251,mitchell,43.7094,-98.0298,11.99,37,0,9.26,US,1712371080
252,armacao de buzios,-22.7469,-41.8817,26.03,87,0,1.95,BR,1712371380
253,grand-bourg,15.8835,-61.3148,25.97,82,11,6.22,GP,1712371380
254,mahroni,24.5862,78.7288,31.11,21,100,1.35,IN,1712371380
255,agat village,13.3886,144.6585,31.52,70,40,7.72,GU,1712371380
256,horta,38.5333,-28.6333,12.23,78,12,2.68,PT,1712371380
257,great bend,38.3645,-98.7648,17.8,43,0,7.2,US,1712371164
258,kalispell,48.1958,-114.3129,7.02,82,100,3.13,US,1712371110
259,deqen,29.9618,90.7188,5.3,26,5,2.33,CN,1712371380
260,penhalonga,-18.8911,32.6978,15.71,97,18,0.88,ZW,1712371381
261,hof,50.3167,11.9167,13.75,72,40,2.57,DE,1712371381
262,bridgewater,44.3835,-64.5155,3.82,91,100,6.69,CA,1712371346
263,lautoka,-17.6167,177.4667,29.92,66,20,6.69,FJ,1712371381
264,sisimiut,66.9395,-53.6735,-6.75,67,100,5.68,GL,1712371381
265,kokologo,12.1897,-1.8856,31.97,32,96,4.07,BF,1712371382
266,kattivakkam,13.2167,80.3167,29.05,61,3,5.03,IN,1712371382
267,los frentones,-26.4077,-61.4137,22.44,99,100,0.94,AR,1712371382
268,baruun-urt,46.6806,113.2792,8.91,40,100,9.26,MN,1712371382
269,brak,27.5496,14.2714,19.09,34,6,7.65,LY,1712371382
270,borogontsy,62.6683,131.1683,-9.78,79,100,3.95,RU,1712371382
271,viedma,-40.8135,-62.9967,14.32,73,0,4.82,AR,1712371121
272,bowen,-20.0167,148.2333,27.21,79,78,6.05,AU,1712371383
273,tuy hoa,13.0833,109.3,31.86,48,4,3.33,VN,1712371383
274,abu qurqas,27.9312,30.8384,16.54,61,0,5.94,EG,1712371383
275,jan kempdorp,-27.9225,24.8305,18.61,45,70,2.33,ZA,1712371383
276,afif,23.9065,42.9172,20.45,59,24,2.88,SA,1712371383
277,kamianske,48.5113,34.6021,6.69,57,100,2.58,UA,1712371383
278,nuuk,64.1835,-51.7216,-1.66,54,67,1.54,GL,1712371260
279,yaritagua,10.08,-69.1261,23.67,88,88,0.79,VE,1712371383
280,humaita,-7.5061,-63.0208,23.73,93,87,0.49,BR,1712371384
281,galliano,29.4422,-90.2992,21.0,78,0,2.57,US,1712371384
282,necochea,-38.5473,-58.7368,13.87,83,0,6.03,AR,1712371231
283,micheweni,-4.9667,39.8333,26.92,85,99,4.14,TZ,1712371384
284,ust-nera,64.5667,143.2,-8.25,81,88,1.35,RU,1712371384
285,tual,-5.6667,132.75,28.32,76,41,1.05,ID,1712371384
286,mangrol,21.1167,70.1167,27.32,63,93,5.14,IN,1712371384
287,loiza,18.4313,-65.8802,27.38,85,0,1.88,PR,1712371384
288,port lincoln,-34.7333,135.8667,17.86,65,8,4.46,AU,1712371385
289,sinabang,2.4803,96.3801,29.53,71,91,0.85,ID,1712371385
290,nakano,36.75,138.3667,18.54,59,94,2.18,JP,1712371385
291,el sauzal de rodriguez,31.9,-116.6833,10.79,69,34,9.25,MX,1712371385
292,aswan,24.0934,32.907,24.61,25,0,2.57,EG,1712371184
293,tambopata,-12.7333,-69.1833,23.91,98,79,1.2,PE,1712371385
294,lubang,13.8584,120.124,27.83,77,10,6.23,PH,1712371385
295,geraldton,-28.7667,114.6,25.23,69,100,3.09,AU,1712371385
296,kidal,18.4411,1.4078,27.11,9,0,3.64,ML,1712371386
297,franceville,-1.6333,13.5836,21.7,99,100,0.8,GA,1712371386
298,mongo,12.1844,18.693,29.24,40,81,3.15,TD,1712371386
299,sao vicente,-23.9631,-46.3919,26.82,26,2,0.71,BR,1712371263
300,tocopilla,-22.092,-70.1979,20.76,81,57,1.08,CL,1712371386
301,baotou,40.6522,109.8222,15.36,19,0,0.65,CN,1712371159
302,slutsk,53.0274,27.5597,7.07,92,100,3.42,BY,1712371386
303,moramanga,-18.9333,48.2,18.01,96,79,0.49,MG,1712371387
304,tyukhtet,56.5389,89.3011,3.74,98,100,1.79,RU,1712371387
305,sangueya,10.7,-14.3667,24.6,88,100,1.43,GN,1712371387
306,farasan,16.7022,42.1183,29.11,73,100,1.54,SA,1712371387
307,baidoa,3.1138,43.6498,24.5,84,28,4.47,SO,1712371387
308,tobelo,1.7284,128.0095,28.73,78,93,3.42,ID,1712371387
309,anadyr,64.75,177.4833,-16.72,85,0,3.0,RU,1712371387
310,kalaleh,37.3807,55.4916,10.78,76,0,0.0,IR,1712371387
311,carutapera,-1.195,-46.02,25.54,92,83,2.85,BR,1712371388
312,nova sintra,14.8667,-24.7167,23.27,75,96,0.35,CV,1712371388
313,egilsstadir,65.2653,-14.3948,-5.05,93,100,2.57,IS,1712371388
314,morehead city,34.7229,-76.726,15.0,59,100,3.6,US,1712371388
315,ankang,32.68,109.0172,18.66,61,71,1.92,CN,1712371388
316,kuala kangsar,4.7667,100.9333,29.96,64,36,0.61,MY,1712371388
317,portrush,55.1959,-6.6493,11.7,91,100,11.54,GB,1712371388
318,peniche,39.3558,-9.3811,15.52,92,100,3.12,PT,1712371389
319,sydney,-33.8679,151.2073,27.98,58,20,4.12,AU,1712371007
320,toulepleu guere,6.574,-8.4259,22.98,99,98,1.52,CI,1712371389
321,labytnangi,66.6572,66.4183,-18.12,77,92,7.18,RU,1712371389
322,portland,45.5234,-122.6762,9.78,84,98,2.24,US,1712371213
323,trinity beach,-16.7888,145.6968,32.25,79,40,4.12,AU,1712371389
324,klyuchi,52.2667,79.1667,11.46,58,59,3.05,RU,1712371390
325,luanco,43.6152,-5.7934,14.71,66,100,2.77,ES,1712371390
326,oum hadjer,13.2954,19.6966,30.15,12,98,3.37,TD,1712371390
327,remire-montjoly,4.9167,-52.2667,28.02,83,75,2.06,GF,1712371390
328,belmonte,-15.8631,-38.8828,25.08,85,4,2.74,BR,1712371390
329,gargalianoi,37.0667,21.6333,14.09,65,71,2.17,GR,1712371390
330,ghat,24.9647,10.1728,20.97,11,0,1.39,LY,1712371390
331,villa canas,-34.0057,-61.6076,14.41,91,0,3.68,AR,1712371390
332,iguape,-24.7081,-47.5553,23.87,88,37,2.62,BR,1712371391
333,kone,-21.0595,164.8658,31.08,53,94,4.0,NC,1712371391
334,dadukou,26.5479,101.7054,26.05,30,6,0.68,CN,1712371391
335,fuzesabony,47.75,20.4167,11.93,82,100,2.42,HU,1712371391
336,batticaloa,7.7102,81.6924,28.2,76,99,1.32,LK,1712371306
337,zmeinogorsk,51.1567,82.195,7.94,85,78,1.77,RU,1712371391
338,mount pearl,47.5166,-52.7813,-1.14,95,100,6.17,CA,1712371314
339,ketchikan,55.3422,-131.6461,4.26,87,100,7.72,US,1712371391
340,solnechnyy,50.7214,136.6319,5.3,60,100,5.83,RU,1712371392
341,yuzhno-kurilsk,44.0306,145.8556,5.76,62,0,4.44,RU,1712371392
342,kodinsk,58.6881,99.1844,-1.98,92,99,2.22,RU,1712371392
343,kununurra,-15.7667,128.7333,30.99,42,97,5.66,AU,1712371295
344,hazorasp,41.3194,61.0742,8.91,61,0,2.88,UZ,1712371392
345,palikir - national government center,6.9248,158.1611,31.47,66,75,5.66,FM,1712371392
346,karachi,24.9056,67.0822,25.9,50,0,1.54,PK,1712371154
347,la tuque,47.4334,-72.7824,3.14,75,100,3.09,CA,1712371392
348,kanel,15.4916,-13.1763,27.8,24,11,5.48,SN,1712371393
349,fisterra,42.9049,-9.2629,12.64,89,100,13.77,ES,1712371393
350,tera,14.0078,0.7531,29.58,13,15,2.68,NE,1712371393
351,dogubayazit,39.5469,44.0842,8.38,71,100,1.47,TR,1712371393
352,verkhnevilyuysk,63.4453,120.3167,-14.27,85,100,2.02,RU,1712371393
353,maintirano,-18.0667,44.0167,25.2,91,7,4.21,MG,1712371393
354,west end,26.6833,-78.9667,17.99,46,0,3.72,BS,1712371393
355,kiruna,67.8557,20.2251,-11.49,85,100,3.09,SE,1712371278
356,troitsk,54.0979,61.5773,5.74,85,100,2.79,RU,1712371394
357,boysun,38.2061,67.1986,12.01,58,96,2.12,UZ,1712371394
358,namibe,-15.1961,12.1522,23.59,71,100,1.65,AO,1712371394
359,banda aceh,5.5577,95.3222,30.13,67,100,3.51,ID,1712371394
360,kikwit,-5.041,18.8162,21.16,94,100,0.55,CD,1712371394
361,sen monorom,12.45,107.2,31.45,41,57,2.24,KH,1712371394
362,nouadhibou,20.931,-17.0347,17.99,94,40,3.6,MR,1712371395
363,tshabong,-26.05,22.45,22.41,45,17,3.34,BW,1712371395
364,puerto baquerizo moreno,-0.9,-89.6,23.98,88,96,4.05,EC,1712371333
365,hasaki,35.7333,140.8333,14.05,91,100,3.92,JP,1712371395
366,wewak,-3.5534,143.6268,29.26,78,100,1.62,PG,1712371395
367,mahina,-17.5065,-149.489,29.87,74,40,3.09,PF,1712371395
368,mitsamiouli,-11.3847,43.2844,28.48,76,42,2.65,KM,1712371395
369,severo-yeniseyskiy,60.3725,93.0408,-1.9,99,100,0.89,RU,1712371395
370,paka,4.6374,103.4368,28.96,74,20,1.54,MY,1712371396
371,kokstad,-30.5472,29.4241,11.73,98,100,1.63,ZA,1712371396
372,fish town,5.1964,-7.8756,23.44,99,72,1.08,LR,1712371396
373,puerto deseado,-47.7503,-65.8938,13.75,49,81,7.91,AR,1712371280
374,plouzane,48.3833,-4.6167,16.18,72,0,7.2,FR,1712371396
375,santana,-0.0583,-51.1817,28.1,89,0,2.06,BR,1712371396
376,saint-philippe,-21.3585,55.7679,24.77,85,6,1.25,RE,1712371396
377,rajin,42.2489,130.3003,12.68,38,0,2.25,KP,1712371397
378,lubny,50.0163,32.9969,8.39,59,100,2.79,UA,1712371397
379,zhangye,38.9342,100.4517,13.13,36,72,0.77,CN,1712371158
380,antonio enes,-16.2325,39.9086,26.32,85,2,0.09,MZ,1712371397
381,amos,48.5669,-78.1162,0.43,92,81,3.97,CA,1712371397
382,la'ie,21.6477,-157.9253,23.98,73,42,4.02,US,1712371397
383,balnearia,-31.0088,-62.6673,21.85,74,82,3.37,AR,1712371397
384,hanceville,34.0607,-86.7675,9.79,80,5,2.29,US,1712371397
385,akobo,7.4344,3.9497,22.73,89,100,1.96,NG,1712371398
386,bati,11.1833,40.0167,18.33,80,99,2.0,ET,1712371398
387,gorontalo,0.5412,123.0595,32.52,61,98,1.7,ID,1712371398
388,ebon,4.582,168.6964,27.05,82,96,7.64,MH,1712371398
389,i-n-salah,27.1935,2.4607,28.18,10,0,11.37,DZ,1712371398
390,lodja,-3.4833,23.4333,20.6,96,100,0.69,CD,1712371398
391,moyale,3.5167,39.0584,18.75,95,100,0.34,KE,1712371398
392,newman,37.3138,-121.0208,11.13,83,13,1.79,US,1712371399
393,freetown,8.484,-13.2299,27.84,78,40,3.09,SL,1712371288
394,saint-pierre,-21.3393,55.4781,24.82,78,0,2.57,RE,1712371399
395,palu,-0.8917,119.8707,34.22,52,38,1.63,ID,1712371399
396,ulanhot,46.0833,122.0833,12.58,29,59,10.45,CN,1712371399
397,fomboni,-12.28,43.7425,29.52,77,45,6.37,KM,1712371399
398,luderitz,-26.6481,15.1594,14.11,80,100,7.55,NA,1712371399
399,ocean shores,46.9737,-124.1563,10.57,74,20,5.66,US,1712371399
400,yarmouth,41.7057,-70.2286,5.64,77,100,7.15,US,1712371399
401,anchorage,61.2181,-149.9003,1.63,90,100,3.6,US,1712371200
402,dainville,50.281,2.726,14.44,87,100,6.31,FR,1712371400
403,motueka,-41.1333,173.0167,19.5,61,13,3.24,NZ,1712371400
404,dekina,7.6948,7.0222,26.03,87,100,1.3,NG,1712371400
405,taos,36.4072,-105.5731,14.22,17,75,6.17,US,1712371198
406,tromso,69.6496,18.957,-5.99,58,99,3.09,NO,1712371400
407,the dalles,45.5946,-121.1787,10.02,61,75,4.63,US,1712371400
408,ola,59.5833,151.2833,-2.7,74,65,0.6,RU,1712371401
409,sirte,31.2089,16.5887,16.09,74,0,3.39,LY,1712371401
410,ploneour-lanvern,47.9,-4.2833,15.16,82,0,6.17,FR,1712371401
411,saipan,15.1355,145.701,27.39,83,40,6.69,MP,1712371323
412,ailuk,10.2197,169.9797,27.19,77,68,8.4,MH,1712371401
413,angaur state,6.906,134.13,28.15,76,18,9.23,PW,1712371401
414,merta,26.65,74.0333,27.35,29,68,1.43,IN,1712371402
415,khambhaliya,22.2072,69.6683,28.11,45,36,4.85,IN,1712371402
416,tambacounda,13.7539,-13.7586,26.95,39,9,4.45,SN,1712371402
417,waiuku,-37.25,174.75,20.39,75,98,2.01,NZ,1712371402
418,tommot,58.9564,126.2925,-12.56,88,100,4.52,RU,1712371402
419,umba,66.6871,34.3429,-5.26,82,100,5.75,RU,1712371403
420,coahuayana de hidalgo,18.7,-103.6583,19.69,78,26,0.93,MX,1712371403
421,iskateley,67.6803,53.1512,-13.32,92,34,4.92,RU,1712371403
422,sakchu-up,40.3894,125.0467,15.83,35,1,4.01,KP,1712371403
423,jose de freitas,-4.7564,-42.5756,24.31,95,87,1.24,BR,1712371142
424,aketi,2.7388,23.7833,22.05,100,100,0.78,CD,1712371403
425,sapucaia,-29.8333,-51.15,19.77,87,0,2.57,BR,1712371403
426,pacific grove,36.6177,-121.9166,11.12,70,40,7.72,US,1712371403
427,luganville,-15.5333,167.1667,27.74,85,100,5.08,VU,1712371403
428,saint-francois,46.4154,3.9054,15.69,39,0,4.63,FR,1712371404
429,berdigestyakh,62.0989,126.6992,-15.12,80,100,3.46,RU,1712371404
430,cabedelo,-6.9811,-34.8339,26.37,79,61,3.33,BR,1712371404
431,rock springs,41.5875,-109.2029,3.69,70,75,8.75,US,1712371267
432,margate,51.3813,1.3862,16.04,76,100,4.02,GB,1712371404
433,namtsy,62.7161,129.6658,-9.99,75,89,4.61,RU,1712371404
434,thisted,56.9552,8.6949,7.89,97,95,2.07,DK,1712371404
435,aguadas,5.6116,-75.4562,14.06,95,68,1.58,CO,1712371405
436,porbandar,21.6422,69.6093,27.39,59,86,4.98,IN,1712371405
437,missoula,47.0166,-113.8009,-0.64,89,100,1.28,US,1712371405
438,broken hill,-31.95,141.4333,18.23,57,99,7.55,AU,1712371133
439,saskatoon,52.1168,-106.6345,7.99,70,75,8.23,CA,1712370904
440,magadan,59.5667,150.8,-3.04,78,57,0.81,RU,1712371393
441,buala,-8.145,159.5921,29.13,80,65,2.54,SB,1712371405
442,pangkalanbuun,-2.6833,111.6167,32.04,60,90,1.36,ID,1712371405
443,cole harbour,44.6724,-63.4751,2.77,93,100,0.45,CA,1712371131
444,adrar,20.5022,-10.0711,26.54,13,3,3.4,MR,1712371406
445,colle di val d'elsa,43.4151,11.1314,12.79,100,44,1.42,IT,1712371406
446,tughyl,47.7252,84.2063,4.74,66,14,1.17,KZ,1712371406
447,nizhnevartovsk,60.9344,76.5531,4.01,75,0,4.0,RU,1712371406
448,island harbour,50.724,-1.2758,15.02,83,99,6.71,GB,1712371406
449,lucapa,-8.4192,20.7447,19.61,96,100,0.66,AO,1712371406
450,kertih,4.5141,103.4483,29.01,74,20,1.54,MY,1712371407
451,neftcala,39.3742,49.2472,12.12,74,72,4.39,AZ,1712371407
452,kudahuvadhoo,2.6708,72.8944,28.99,74,76,1.95,MV,1712371407
453,balsas,-7.5325,-46.0356,24.56,91,93,0.48,BR,1712371200
454,port hedland,-20.3167,118.5667,33.03,19,38,7.72,AU,1712371407
455,revda,56.801,59.9303,-2.62,83,100,4.65,RU,1712371407
456,ciudad sabinas hidalgo,26.5,-100.1667,22.41,57,100,4.79,MX,1712371407
457,zlocieniec,53.5329,16.0113,9.38,92,52,5.3,PL,1712371408
458,mahibadhoo,3.7833,72.9667,29.1,72,79,1.23,MV,1712371408
459,takoradi,4.8845,-1.7554,27.2,84,39,2.94,GH,1712371408
460,tura,25.5198,90.2201,28.56,62,8,3.68,IN,1712371408
461,tafalla,42.5269,-1.6745,13.49,47,62,4.23,ES,1712371408
462,chu,43.5983,73.7614,13.19,54,100,3.29,KZ,1712371408
463,kutum,14.2,24.6667,22.71,18,100,4.37,SD,1712371408
464,smolyaninovo,43.2956,132.4675,12.7,45,3,5.67,RU,1712371408
465,areia branca,-4.9561,-37.1369,27.52,77,41,3.94,BR,1712371409
466,qarazhal,48.0078,70.7903,10.86,42,98,1.19,KZ,1712371280
467,manokwari,-0.8667,134.0833,27.64,80,87,2.08,ID,1712371409
468,settat,33.0007,-7.6204,16.9,16,38,8.07,MA,1712371409
469,cheremushki,52.8356,91.3944,11.53,76,99,0.75,RU,1712371409
470,tonghae,37.5439,129.1069,17.15,47,100,0.92,KR,1712371409
471,vadso,70.0744,29.7487,-10.51,84,100,6.54,NO,1712371409
472,cooper's town,26.8667,-77.5167,21.85,44,0,2.03,BS,1712371409
473,sonoita,31.85,-112.8333,12.95,41,99,11.01,MX,1712371410
474,pul-e khumri,35.9446,68.7151,19.52,27,54,2.49,AF,1712371410
475,kiknur,57.3034,47.2011,-4.92,61,37,6.05,RU,1712371410
476,maitum,6.0392,124.4986,30.88,63,100,3.29,PH,1712371410
477,labuan,5.2767,115.2417,31.2,74,20,1.03,MY,1712371410
478,colac,-38.3333,143.5833,20.09,82,98,2.12,AU,1712371410
479,murray bridge,-35.1167,139.2667,22.41,46,19,5.32,AU,1712371410
480,pingdingshan,33.7385,113.3012,18.56,53,86,2.76,CN,1712371410
481,muana,-1.5283,-49.2167,24.75,96,100,2.77,BR,1712371411
482,kokpekty,48.75,82.4,4.62,59,100,0.91,KZ,1712371411
483,chenzhou,25.8,113.0333,14.11,98,100,2.98,CN,1712371157
484,salym,60.0625,71.4789,-5.12,92,100,5.26,RU,1712371411
485,aligudarz,33.4006,49.6949,9.27,57,0,0.64,IR,1712371411
486,katsuren-haebaru,26.3369,127.8719,24.43,96,100,2.06,JP,1712371411
487,scottburgh,-30.2867,30.7532,19.3,87,100,3.25,ZA,1712371375
488,waitara,-38.925,174.25,17.22,61,35,3.11,NZ,1712371412
489,guerrero negro,27.9769,-114.0611,15.36,56,100,8.26,MX,1712371165
490,galle,6.0367,80.217,28.58,74,96,1.44,LK,1712371353
491,dunedin,-45.8742,170.5036,16.0,63,59,2.68,NZ,1712371332
492,kuta,-8.7233,115.1723,30.0,79,20,3.6,ID,1712371412
493,kailua-kona,19.6406,-155.9956,26.98,85,40,6.69,US,1712371366
494,barcelos,41.5388,-8.6151,13.08,95,100,5.34,PT,1712371412
495,rodez,44.5,2.5833,13.82,47,0,8.75,FR,1712371413
496,yamada,39.4667,141.95,12.44,62,22,4.38,JP,1712371413
497,carlsbad,33.1581,-117.3506,13.03,72,100,7.15,US,1712371154
498,emerald,-23.5333,148.1667,26.69,66,100,4.21,AU,1712371361
499,malango,-2.9627,119.9001,28.67,63,86,1.28,ID,1712371413
500,oruro,-17.9833,-67.15,10.78,72,97,4.83,BO,1712371413
501,tsiombe,-25.3,45.4833,21.88,80,17,2.16,MG,1712371413
502,kerema,-7.9631,145.7785,29.06,78,81,4.79,PG,1712371414
503,labrador city,52.9463,-66.9114,-4.05,79,75,2.24,CA,1712371209
504,musan-up,42.2261,129.2078,17.54,23,36,6.47,KP,1712371414
505,kirakira,-10.4544,161.9205,28.97,79,80,2.16,SB,1712371414
506,summerside,46.3959,-63.7876,4.27,100,66,3.6,CA,1712371414
507,ixtapa,20.7,-105.2,21.57,78,75,2.57,MX,1712371414
508,dawukou,39.0419,106.3958,14.76,29,35,2.03,CN,1712371415
509,la almunia de dona godina,41.4767,-1.3745,13.23,64,36,0.95,ES,1712371415
510,ankazoabo,-22.2833,44.5167,20.83,72,0,2.35,MG,1712371415
511,guilin,25.2819,110.2864,15.06,92,100,2.9,CN,1712371415
512,silver city,32.7701,-108.2803,13.15,34,87,6.26,US,1712371415
513,axim,4.8699,-2.2405,27.2,85,79,2.79,GH,1712371415
514,papao,-17.75,-149.55,29.82,76,24,1.87,PF,1712371415
515,moyynkum,44.2914,72.9469,12.92,61,100,4.28,KZ,1712371415
516,asaita,11.5636,41.4394,26.75,64,88,2.37,ET,1712371416
517,dobrush,52.4089,31.3237,9.09,100,100,2.53,BY,1712371416
518,port alfred,-33.5906,26.891,15.1,92,100,5.41,ZA,1712371416
519,palencia,42.4167,-4.5,18.77,44,100,9.93,ES,1712371416
520,la ronge,55.1001,-105.2842,8.14,39,75,4.63,CA,1712371416
521,soldato-aleksandrovskoye,44.2653,43.7561,9.76,78,92,3.97,RU,1712371416
522,coxim,-18.5067,-54.76,26.04,69,6,1.48,BR,1712371143
523,rongelap,11.1635,166.8941,27.27,75,34,8.63,MH,1712371417
524,korneuburg,48.35,16.3333,16.91,77,100,1.77,AT,1712371417
525,khamis mushait,18.3064,42.7292,16.34,82,0,0.0,SA,1712371417
526,kolonia,50.9333,6.95,15.41,83,0,2.57,DE,1712371417
527,essaouira,31.5125,-9.77,19.72,59,99,1.54,MA,1712371417
528,muang phon-hong,18.4928,102.4172,37.1,30,7,0.92,LA,1712371417
529,togur,58.3631,82.8265,3.41,95,19,2.24,RU,1712371417
530,forster,-32.1667,152.5167,25.77,79,32,4.11,AU,1712371417
531,akureyri,65.6835,-18.0878,-3.04,74,100,2.57,IS,1712371365
532,sihanoukville,10.6093,103.5296,30.97,70,40,2.06,KH,1712371418
533,soria,41.6667,-2.6667,10.62,55,85,2.56,ES,1712371418
534,yamoussoukro,6.8206,-5.2767,25.94,88,0,2.06,CI,1712371418
535,sambava,-14.2667,50.1667,24.79,89,58,3.82,MG,1712371418
536,volchikha,52.0333,80.3833,11.12,61,30,2.41,RU,1712371418
537,katabu,-4.9333,122.5167,30.23,75,54,1.23,ID,1712371418
538,patterson,37.4716,-121.1297,9.97,83,15,0.72,US,1712371418
539,weno,7.4515,151.8468,30.97,74,75,5.66,FM,1712371419
540,talara,-4.5772,-81.2719,23.42,78,75,6.17,PE,1712371419
541,flying fish cove,-10.4217,105.6791,28.82,78,84,2.57,CX,1712371419
542,evanston,42.0411,-87.6901,5.54,63,0,3.6,US,1712371419
543,xacmaz,41.4635,48.806,11.88,55,100,2.06,AZ,1712371263
544,tamalous,36.8376,6.6402,17.47,45,46,4.07,DZ,1712371376
545,summerville,33.0185,-80.1757,14.32,73,0,2.06,US,1712371242
546,as sulayyil,20.4607,45.5779,23.14,33,65,5.0,SA,1712371419
547,toliara,-23.35,43.6667,23.11,86,3,1.9,MG,1712371419
548,menongue,-14.6585,17.691,17.42,96,86,0.77,AO,1712371420
549,cabo san lucas,22.8909,-109.9124,25.61,68,0,7.72,MX,1712370836
550,aral,40.5156,81.2636,12.83,35,21,8.0,CN,1712371420
551,plastun,44.7561,136.2939,12.81,32,2,3.16,RU,1712371420
552,bulgan,48.8125,103.5347,9.53,42,50,1.83,MN,1712371420
553,bodenwerder,51.9716,9.5193,14.28,87,100,1.94,DE,1712371420
554,turpan,42.9333,89.1667,17.49,21,17,1.17,CN,1712371159
555,massawa,15.6097,39.45,28.54,72,19,1.3,ER,1712371420
556,sullivan,36.5168,-82.5332,6.66,76,100,3.09,US,1712371421
557,shingu,33.7333,135.9833,17.19,74,100,2.54,JP,1712371159
558,akjoujt,19.6969,-14.4164,23.42,45,70,5.3,MR,1712371421
559,port isabel,26.0734,-97.2086,23.02,80,0,6.17,US,1712371421
560,mil'kovo,55.6078,37.7956,1.33,67,100,3.26,RU,1712371421
561,wanning,18.8003,110.3967,29.6,64,70,5.45,CN,1712371421
