City_ID,City,Lat,Lng,Max Temp,Humidity,Cloudiness,Wind Speed,Country,Date
0,maceio,-9.6658,-35.7353,298.84,88,0,1.03,BR,1712363765
1,edinburgh of the seven seas,-37.0676,-12.3116,291.83,92,80,11.29,SH,1712363872
2,lompoc,34.6391,-120.4579,286.27,63,20,5.66,US,1712363642
3,stanley,54.868,-1.6985,284.1,87,100,3.6,GB,1712363646
4,bredasdorp,-34.5322,20.0403,288.05,80,100,6.81,ZA,1712363873
5,kourou,5.1552,-52.6478,301.18,87,100,2.88,GF,1712363873
6,tiksi,71.6872,128.8694,250.16,98,99,1.57,RU,1712363873
7,iringa,-7.7667,35.7,288.89,93,100,2.23,TZ,1712363873
8,polyarnyy,69.1989,33.4478,263.6,86,100,6.42,RU,1712363599
9,ilulissat,69.2167,-51.1,267.16,68,100,0.51,GL,1712363873
10,opuwo,-18.0607,13.84,296.37,63,94,1.32,NA,1712363293
11,st. john's,47.5649,-52.7093,271.98,94,100,6.26,CA,1712363752
12,sitka,57.0531,-135.33,279.09,81,100,1.54,US,1712363582
13,kandahar,31.0,65.75,287.84,23,0,0.48,AF,1712363874
14,alofi,-19.0595,-169.9187,302.09,74,20,4.63,NU,1712363874
15,lima,-12.0432,-77.0282,299.21,70,0,7.72,PE,1712363819
16,abu ghurayb,33.3083,44.185,295.12,35,0,5.14,IQ,1712363875
17,longyearbyen,78.2186,15.6401,248.06,84,20,3.6,SJ,1712363828
18,olyokminsk,60.3736,120.4264,257.36,69,100,4.28,RU,1712363875
19,yellowknife,62.456,-114.3525,274.44,55,20,7.15,CA,1712363875
20,tabas,33.5959,56.9244,294.24,19,0,2.3,IR,1712363875
21,porto novo,6.4965,2.6036,301.05,81,91,2.44,BJ,1712363875
22,qaqortoq,60.7167,-46.0333,267.23,76,1,3.49,GL,1712363876
23,san antonio de pale,-1.4014,5.6325,301.47,77,100,3.55,GQ,1712363876
24,ancud,-41.8697,-73.8203,285.2,85,91,2.04,CL,1712363876
25,mendi,-6.1761,143.6513,288.51,97,100,0.97,PG,1712363876
26,umm kaddadah,13.6017,26.6876,300.82,13,99,8.32,SD,1712363876
27,enewetak,11.3474,162.3373,300.44,77,76,9.09,MH,1712363876
28,puerto natales,-51.7236,-72.4875,284.01,73,100,4.67,CL,1712363876
29,olonkinbyen,70.9221,-8.7187,266.35,63,100,6.69,SJ,1712363876
30,afaahiti,-17.75,-149.2833,303.08,82,70,3.53,PF,1712363877
31,tabou,4.423,-7.3528,299.6,88,21,2.4,CI,1712363877
32,rio grande,-32.035,-52.0986,292.21,65,0,4.29,BR,1712363207
33,nyurba,63.2842,118.3319,255.8,87,100,2.49,RU,1712363599
34,port-aux-francais,-49.35,70.2167,281.35,97,99,11.86,TF,1712363722
35,papatowai,-46.5619,169.4708,286.83,72,100,4.25,NZ,1712363877
36,uturoa,-16.7333,-151.4333,302.35,73,96,3.44,PF,1712363877
37,bliss corner,41.6118,-70.9384,279.46,75,100,8.49,US,1712363877
38,invercargill,-46.4,168.35,284.83,96,90,3.13,NZ,1712363878
39,adamstown,-25.066,-130.1015,295.26,65,100,2.37,PN,1712363878
40,ambon,-3.6954,128.1814,304.64,74,40,6.69,ID,1712363878
41,madinat ash shamal,26.1293,51.2009,297.29,40,0,2.22,QA,1712363878
42,ta`u,-14.2336,-169.5144,302.14,77,99,3.61,AS,1712363878
43,two rivers,44.1539,-87.5693,279.22,57,0,2.57,US,1712363720
44,birao,10.2849,22.7882,302.28,49,100,2.58,CF,1712363878
45,bonthe,7.5264,-12.505,299.16,87,100,2.23,SL,1712363878
46,badger,64.8,-147.5333,276.32,71,75,3.6,US,1712363879
47,waitangi,-43.9535,-176.5597,285.83,77,84,3.13,NZ,1712363879
48,blackmans bay,-43.0167,147.3167,291.89,61,6,0.45,AU,1712363879
49,avarua,-21.2078,-159.775,301.18,74,100,3.09,CK,1712363879
50,fort bragg,35.139,-79.006,288.06,41,0,5.81,US,1712363728
51,rawson,-43.3002,-65.1023,291.3,44,0,10.33,AR,1712363879
52,lerwick,60.1545,-1.1494,278.15,70,100,8.98,GB,1712363879
53,georgetown,5.4112,100.3354,302.11,83,20,1.54,MY,1712363804
54,ulladulla,-35.35,150.4667,294.69,85,35,4.89,AU,1712363879
55,lebu,-37.6167,-73.65,285.39,91,4,3.87,CL,1712363880
56,clarksdale,34.2001,-90.5709,289.14,64,6,3.09,US,1712363880
57,punta arenas,-53.15,-70.9167,284.21,71,0,11.32,CL,1712363880
58,chakia,26.4167,85.05,299.67,20,82,2.76,IN,1712363880
59,princeville,45.7668,-61.2985,275.88,97,100,3.09,CA,1712363880
60,lihue,21.9789,-159.3672,300.73,79,100,10.8,US,1712363880
61,riyadh,24.6877,46.7219,292.23,21,96,2.13,SA,1712363619
62,saynshand,44.8824,110.1163,281.44,38,1,5.16,MN,1712363881
63,grytviken,-54.2811,-36.5092,275.46,83,84,2.35,GS,1712363881
64,porto murtinho,-21.6989,-57.8825,302.47,64,100,2.74,BR,1712363881
65,sergeyevka,53.88,67.4158,275.1,99,92,2.72,KZ,1712363881
66,hawaiian paradise park,19.5933,-154.9731,297.88,75,100,4.63,US,1712363882
67,selfoss,63.9331,-20.9971,269.29,50,0,5.32,IS,1712363882
68,eenhana,-17.4667,16.3333,292.81,83,97,2.93,NA,1712363882
69,vernon,50.2581,-119.2691,282.89,68,96,2.24,CA,1712363711
70,nema,57.5067,50.5011,264.21,88,14,4.22,RU,1712363882
71,carnarvon,-24.8667,113.6333,299.37,54,0,7.07,AU,1712363882
72,hadibu,12.65,54.0333,298.92,74,6,2.33,YE,1712363882
73,hrazdan,40.4975,44.7662,277.96,88,94,2.39,AM,1712363770
74,machico,32.7,-16.7667,291.5,78,20,4.63,PT,1712363883
75,leua,48.2156,18.6071,288.43,86,100,1.49,SK,1712363883
76,kingston,17.997,-76.7936,302.68,79,20,6.69,JM,1712363772
77,aitape,-3.1374,142.3475,303.28,69,69,2.38,PG,1712363883
78,isafjordur,66.0755,-23.124,265.81,72,58,3.08,IS,1712363883
79,west island,-12.1568,96.8225,300.14,89,40,4.12,CC,1712363883
80,faridkot,30.6667,74.75,291.32,22,0,0.91,IN,1712363883
81,yabelo,4.8833,38.0833,288.43,90,15,1.99,ET,1712363884
82,bata,1.8639,9.7658,299.18,84,100,2.81,GQ,1712363884
83,margaret river,-33.95,115.0667,294.05,46,0,5.34,AU,1712363849
84,puri,19.8,85.85,300.53,85,0,6.42,IN,1712363884
85,greymouth,-42.4667,171.2,289.22,61,0,2.31,NZ,1712363884
86,chingirlau,51.095,54.0814,282.7,65,100,1.78,KZ,1712363884
87,kuqa,41.7278,82.9364,282.13,51,98,2.85,CN,1712363884
88,atafu village,-8.5421,-172.5159,302.52,69,100,2.89,TK,1712363885
89,celestun,20.8667,-90.4,297.0,69,10,8.24,MX,1712363885
90,la passe,45.5549,-0.8967,290.36,75,64,11.63,FR,1712363885
91,berezovyy,51.6667,135.7,278.64,50,100,1.8,RU,1712363885
92,fale old settlement,-9.3852,-171.2468,302.56,70,59,1.91,TK,1712363696
93,iqaluit,63.7506,-68.5145,265.0,93,100,1.54,CA,1712363886
94,ciudad melchor muzquiz,27.8833,-101.5167,301.69,31,100,7.06,MX,1712363886
95,dazhou,31.2159,107.5009,287.86,76,100,1.86,CN,1712363886
96,tolanaro,-25.0319,46.9987,298.19,83,20,4.12,MG,1712363886
97,hamilton,39.1834,-84.5333,280.85,69,100,2.57,US,1712363435
98,muisne,0.6,-80.0333,299.44,84,100,1.76,EC,1712363886
99,ushuaia,-54.8,-68.3,284.96,54,20,5.66,AR,1712363844
100,el granada,37.5027,-122.4694,287.09,65,75,14.4,US,1712363636
101,sola,-13.8833,167.55,303.52,79,75,2.06,VU,1712363887
102,bilibino,68.0546,166.4372,261.42,74,11,0.37,RU,1712363887
103,kerikeri,-35.2268,173.9474,293.51,61,59,2.84,NZ,1712363887
104,colonia,50.9333,6.95,288.68,81,20,3.09,DE,1712363844
105,gadzhiyevo,69.2551,33.3362,263.08,88,100,6.25,RU,1712363597
106,arraial do cabo,-22.9661,-42.0278,297.29,84,0,1.85,BR,1712363888
107,port mathurin,-19.6833,63.4167,299.91,79,70,7.59,MU,1712363888
108,bethel,41.3712,-73.414,279.68,65,40,3.09,US,1712363677
109,nogliki,51.8333,143.1667,276.67,75,0,4.02,RU,1712363888
110,colares,38.7992,-9.4469,291.97,94,100,9.39,PT,1712363888
111,port elizabeth,-33.918,25.5701,289.99,76,100,0.45,ZA,1712363888
112,tebingtinggi,3.3285,99.1625,299.67,89,98,1.38,ID,1712363888
113,coquimbo,-29.9533,-71.3436,288.0,94,20,1.03,CL,1712363765
114,sao felix do xingu,-6.6447,-51.995,296.37,98,100,0.91,BR,1712363889
115,pulandian,39.3953,121.9669,289.03,42,50,5.7,CN,1712363889
116,salinopolis,-0.6136,-47.3561,300.04,86,64,5.21,BR,1712363889
117,saldanha,-33.0117,17.9442,286.18,80,19,7.3,ZA,1712363889
118,cestos city,5.46,-9.5828,299.94,89,100,2.19,LR,1712363889
119,tazovsky,67.4667,78.7,250.5,96,18,4.51,RU,1712363889
120,thompson,55.7435,-97.8558,281.24,39,75,3.09,CA,1712363889
121,tapes,-30.6733,-51.3958,292.76,67,0,3.51,BR,1712363890
122,bulata,9.8599,122.4016,303.0,62,100,4.48,PH,1712363890
123,krasnyy kut,50.95,46.9667,278.8,91,100,2.81,RU,1712363890
124,esikhaleni,-28.871,31.8996,294.54,81,100,4.51,ZA,1712363890
125,puerto ayora,-0.7393,-90.3518,298.46,94,63,1.34,EC,1712363890
126,ormara,25.2088,64.6357,297.61,68,0,6.27,PK,1712363890
127,fortuna,40.5982,-124.1573,284.22,67,75,4.63,US,1712363891
128,whitehorse,60.7161,-135.0538,276.49,80,75,5.66,CA,1712363713
129,vila velha,-20.3297,-40.2925,300.34,87,75,2.57,BR,1712363702
130,daru,-9.0763,143.2092,299.9,89,100,4.45,PG,1712363891
131,san julian,21.0167,-102.1667,294.9,17,100,3.3,MX,1712363891
132,dudinka,69.4058,86.1778,264.64,93,100,12.52,RU,1712363891
133,college,64.8569,-147.8028,276.37,69,75,3.6,US,1712363756
134,pisco,-13.7,-76.2167,296.18,83,0,7.72,PE,1712363891
135,haiku-pauwela,20.9219,-156.3051,298.99,80,40,11.32,US,1712363891
136,san patricio,28.017,-97.5169,297.2,66,100,6.89,US,1712363892
137,kodiak,57.79,-152.4072,278.88,52,40,6.69,US,1712363892
138,north bend,43.4065,-124.2243,284.4,76,100,4.12,US,1712363892
139,shahkot,31.0775,75.3372,292.02,22,0,2.17,IN,1712363892
140,jamestown,42.097,-79.2353,274.92,98,100,5.66,US,1712363873
141,nar'yan-mar,67.6713,53.087,259.88,93,71,4.47,RU,1712363892
142,tawau,4.2498,117.8871,300.22,82,100,2.15,MY,1712363893
143,katsuura,35.1333,140.3,285.16,95,100,6.32,JP,1712363893
144,keflavik,64.0049,-22.5624,272.39,69,0,4.12,IS,1712363893
145,ouarzazat,30.9189,-6.8934,293.31,15,100,0.51,MA,1712363893
146,vega de alatorre,20.0333,-96.6333,296.75,83,87,6.75,MX,1712363893
147,palmer,42.1584,-72.3287,278.44,72,100,4.63,US,1712363831
148,hobyo,5.3505,48.5268,301.21,71,52,5.37,SO,1712363893
149,rikaze,29.25,88.8833,277.83,39,100,0.69,CN,1712363893
150,udachny,66.4167,112.4,249.51,91,19,4.86,RU,1712363894
151,wladyslawowo,54.7909,18.4009,285.9,84,6,9.79,PL,1712363894
152,wajir,1.7471,40.0573,298.89,83,100,2.58,KE,1712363894
153,wynyard,-41.0,145.7167,289.77,76,100,6.2,AU,1712363894
154,albany,42.6001,-73.9662,277.91,75,99,5.81,US,1712363212
155,nadym,65.5333,72.5167,254.8,87,6,7.68,RU,1712363894
156,kamiiso,41.8167,140.65,282.36,71,0,2.06,JP,1712363894
157,fort mcmurray,56.7268,-111.381,274.88,93,100,1.54,CA,1712363895
158,aasiaat,68.7098,-52.8699,261.36,95,100,4.52,GL,1712363895
159,wailua homesteads,22.0669,-159.378,300.39,79,100,10.8,US,1712363895
160,kapa'a,22.0752,-159.319,301.14,79,100,10.8,US,1712363607
161,bathsheba,13.2167,-59.5167,301.49,78,40,7.72,BB,1712363895
162,east london,-33.0153,27.9116,290.23,81,100,2.55,ZA,1712363895
163,kushiro,42.975,144.3747,282.68,40,0,4.63,JP,1712363896
164,bambanglipuro,-7.95,110.2833,300.49,79,100,1.83,ID,1712363896
165,nikolayevsk-on-amure,53.1406,140.73,277.16,67,67,1.34,RU,1712363721
166,corn island,12.1694,-83.0418,301.09,79,4,8.18,NI,1712363896
167,faya-largeau,17.9257,19.1043,301.55,12,40,8.5,TD,1712363896
168,vorgashor,67.5833,63.95,254.72,94,100,7.6,RU,1712363896
169,copala,16.65,-98.9833,298.18,69,4,2.05,MX,1712363896
170,prabumulih,-3.45,104.25,297.36,98,100,1.01,ID,1712363897
171,altinekin,38.3078,32.8686,283.46,63,36,2.57,TR,1712363897
172,codrington,-38.2667,141.9667,288.94,78,100,1.59,AU,1712363897
173,roma,43.2128,-75.4557,276.94,87,100,5.14,US,1712363764
174,santa cruz,-17.8,-63.1667,300.85,78,100,1.03,BO,1712363761
175,rudnichnyy,59.617,52.4703,265.06,63,16,2.6,RU,1712363897
176,kayangel,8.0823,134.7173,301.0,79,6,9.86,PW,1712363897
177,koulikoro,14.0,-7.75,304.31,24,61,1.95,ML,1712363898
178,arno,60.1167,18.6333,273.03,96,100,1.86,SE,1712363898
179,la foa,-21.7108,165.8276,302.14,59,100,1.82,NC,1712363898
180,mirnyy,62.5353,113.9611,251.06,93,100,4.02,RU,1712363898
181,talnakh,69.4865,88.3972,262.09,94,100,9.95,RU,1712363898
182,waynesboro,38.0685,-78.8895,279.82,66,100,4.12,US,1712363724
183,chonchi,-42.6128,-73.8092,285.71,93,76,0.95,CL,1712363898
184,leava,-14.3,-178.1667,301.17,78,100,2.65,WF,1712363898
185,pangody,65.85,74.4859,253.78,90,11,6.64,RU,1712363899
186,crane,31.3974,-102.3501,298.03,22,87,12.18,US,1712363899
187,sao joao da barra,-21.6403,-41.0511,297.2,84,1,3.16,BR,1712363899
188,hammerfest,70.6634,23.6821,263.4,67,96,0.0,NO,1712363899
189,hermanus,-34.4187,19.2345,286.93,77,100,8.31,ZA,1712363899
190,khandyga,62.6667,135.6,270.5,86,100,0.68,RU,1712363899
191,port saint john's,-31.6229,29.5448,291.41,85,100,2.49,ZA,1712363899
192,rangkasbitung,-6.3591,106.2494,302.25,86,79,2.52,ID,1712363900
193,cartagena,10.3997,-75.5144,301.94,79,20,5.14,CO,1712363630
194,usogorsk,63.4106,48.6872,253.89,100,65,1.32,RU,1712363900
195,centar zupa,41.4681,20.5589,283.19,83,3,0.59,MK,1712363900
196,kruisfontein,-34.0033,24.7314,287.53,72,100,3.6,ZA,1712363900
197,aykhal,66.0,111.5,249.75,94,67,5.16,RU,1712363900
198,constantia,44.1833,28.65,282.53,66,0,2.26,RO,1712363829
199,qamdo,31.1667,97.2333,275.42,63,100,2.68,CN,1712363900
200,dalandzadgad,43.5708,104.425,281.78,26,1,1.07,MN,1712363901
201,la paz,-16.5,-68.15,285.14,81,40,3.6,BO,1712363853
202,brisas de zicatela,15.8369,-97.0419,300.44,78,0,3.09,MX,1712363901
203,lagos,6.5833,3.75,302.33,89,100,3.2,NG,1712363676
204,grantsville,40.5999,-112.4644,281.26,54,100,6.69,US,1712363901
205,muscat,23.6139,58.5922,294.16,44,0,2.01,OM,1712363901
206,mineiros,-17.5694,-52.5511,295.34,82,55,1.65,BR,1712363782
207,caleta de carquin,-11.0925,-77.6267,295.54,86,100,4.31,PE,1712363901
208,champerico,14.3,-91.9167,302.45,72,100,2.16,GT,1712363901
209,kulhudhuffushi,6.6221,73.07,302.35,75,100,4.22,MV,1712363902
210,touros,-5.1989,-35.4608,299.68,84,89,2.86,BR,1712363705
211,petropavlovsk-kamchatsky,53.0452,158.6483,274.48,74,40,6.71,RU,1712363902
212,holualoa,19.6228,-155.9522,299.06,83,40,6.69,US,1712363902
213,vilyuchinsk,52.9306,158.4028,275.3,67,31,4.5,RU,1712363902
214,whangarei,-35.7317,174.3239,290.07,94,98,3.35,NZ,1712363677
215,beneditinos,-5.45,-42.3667,297.28,94,37,1.31,BR,1712363902
216,tateyama,34.9833,139.8667,287.09,94,75,2.06,JP,1712363902
217,bac lieu,9.285,105.7244,302.4,61,90,4.49,VN,1712363903
218,meiningen,50.5679,10.4152,288.6,93,100,1.19,DE,1712363903
219,maxixe,-23.8597,35.3472,297.4,88,100,2.21,MZ,1712363903
220,ribeira grande,38.5167,-28.7,285.8,77,10,2.24,PT,1712363903
221,kyzyl-suu,42.3414,78.0056,278.23,46,0,4.41,KG,1712363903
222,tarauaca,-8.1614,-70.7656,299.09,81,81,1.14,BR,1712363903
223,nagqu,31.5,92.0,272.8,41,100,7.09,CN,1712363903
224,nemuro,43.3236,145.575,278.1,61,0,5.46,JP,1712363904
225,neryungri,56.6709,124.6491,260.48,91,100,8.21,RU,1712363904
226,yinchuan,38.4681,106.2731,286.63,32,13,2.28,CN,1712363904
227,laminusa,5.5549,120.9136,300.96,77,100,2.44,PH,1712363904
228,bambang,16.3833,121.1,302.53,43,9,2.08,PH,1712363904
229,huarmey,-10.0681,-78.1522,295.98,86,100,4.43,PE,1712363904
230,utrik,11.2278,169.8474,300.17,76,100,8.62,MH,1712363904
231,pechora,65.1472,57.2244,261.47,92,99,4.91,RU,1712363904
232,dubbo,-32.25,148.6167,291.22,94,75,3.09,AU,1712363718
233,le port,-20.9373,55.2919,298.15,84,2,2.19,RE,1712363905
234,galesong,-5.3166,119.3661,300.16,77,22,2.52,ID,1712363905
235,arbroath,56.5632,-2.5874,280.19,96,100,1.33,GB,1712363677
236,santa ana,33.7456,-117.8678,287.94,54,75,6.69,US,1712363905
237,midvagur,62.0511,-7.1939,276.61,52,75,11.32,FO,1712363905
238,hargeysa,9.56,44.065,294.07,77,6,0.86,SO,1712363905
239,kuusamo,65.9667,29.1833,264.17,79,100,3.6,FI,1712363905
240,laguna,38.421,-121.4238,286.54,66,0,4.63,US,1712363906
241,cururupu,-1.8283,-44.8683,297.11,99,61,0.38,BR,1712363906
242,ouadda,8.0777,22.4007,295.26,81,100,2.13,CF,1712363906
243,queenstown,-31.8976,26.8753,284.72,90,100,3.27,ZA,1712363906
244,minas de marcona,-15.2119,-75.1103,290.72,88,72,5.59,PE,1712363906
245,zelenoborskiy,66.845,32.3622,263.17,94,100,2.08,RU,1712363906
246,bikenibeu village,1.3673,173.1241,303.13,79,40,4.63,KI,1712363906
247,kristiansund,63.1115,7.732,274.51,75,100,0.51,NO,1712363906
248,tucuma,-0.1833,-50.05,298.55,92,90,3.2,BR,1712363907
249,susuman,62.7833,148.1667,257.03,88,72,0.89,RU,1712363907
250,tralee,52.2704,-9.7026,285.85,90,100,11.2,IE,1712363907
251,mitchell,43.7094,-98.0298,287.14,35,0,8.75,US,1712363652
252,armacao de buzios,-22.7469,-41.8817,299.18,87,0,1.69,BR,1712363905
253,grand-bourg,15.8835,-61.3148,301.26,79,1,6.15,GP,1712363907
254,mahroni,24.5862,78.7288,300.98,26,100,1.49,IN,1712363907
255,agat village,13.3886,144.6585,302.24,85,100,5.14,GU,1712363907
256,horta,38.5333,-28.6333,285.38,77,12,2.24,PT,1712363907
257,great bend,38.3645,-98.7648,294.22,32,0,9.26,US,1712363908
258,kalispell,48.1958,-114.3129,281.64,79,100,4.63,US,1712363890
259,deqen,29.9618,90.7188,274.52,57,5,2.05,CN,1712363908
260,penhalonga,-18.8911,32.6978,289.13,97,33,1.13,ZW,1712363908
261,hof,50.3167,11.9167,287.45,72,100,3.09,DE,1712363908
262,bridgewater,44.3835,-64.5155,276.97,89,100,5.14,CA,1712363908
263,lautoka,-17.6167,177.4667,304.07,55,20,1.03,FJ,1712363908
264,sisimiut,66.9395,-53.6735,265.99,66,100,5.9,GL,1712363909
265,kokologo,12.1897,-1.8856,305.07,29,99,3.6,BF,1712363909
266,kattivakkam,13.2167,80.3167,300.2,85,14,5.31,IN,1712363909
267,los frentones,-26.4077,-61.4137,295.51,99,100,1.22,AR,1712363909
268,baruun-urt,46.6806,113.2792,278.65,52,98,8.02,MN,1712363909
269,brak,27.5496,14.2714,293.83,25,6,5.81,LY,1712363909
270,borogontsy,62.6683,131.1683,261.65,81,100,3.97,RU,1712363830
271,viedma,-40.8135,-62.9967,288.3,69,0,4.65,AR,1712363624
272,bowen,-20.0167,148.2333,299.86,83,92,5.91,AU,1712363910
273,tuy hoa,13.0833,109.3,300.07,65,4,0.68,VN,1712363910
274,abu qurqas,27.9312,30.8384,291.07,54,0,6.01,EG,1712363910
275,jan kempdorp,-27.9225,24.8305,293.94,41,80,3.06,ZA,1712363910
276,afif,23.9065,42.9172,294.32,55,33,2.28,SA,1712363910
277,kamianske,48.5113,34.6021,280.26,56,100,2.5,UA,1712363910
278,nuuk,64.1835,-51.7216,270.49,74,20,4.12,GL,1712363793
279,yaritagua,10.08,-69.1261,297.29,89,67,2.01,VE,1712363751
280,humaita,-7.5061,-63.0208,297.61,93,99,0.3,BR,1712363911
281,galliano,29.4422,-90.2992,297.15,64,0,3.6,US,1712363878
282,necochea,-38.5473,-58.7368,288.12,76,0,6.99,AR,1712363821
283,micheweni,-4.9667,39.8333,299.95,85,98,3.71,TZ,1712363911
284,ust-nera,64.5667,143.2,262.82,86,87,1.51,RU,1712363911
285,tual,-5.6667,132.75,301.31,77,56,1.62,ID,1712363911
286,mangrol,21.1167,70.1167,299.18,69,100,4.1,IN,1712363912
287,loiza,18.4313,-65.8802,301.2,80,1,2.94,PR,1712363912
288,port lincoln,-34.7333,135.8667,290.11,64,19,2.8,AU,1712363912
289,sinabang,2.4803,96.3801,300.66,81,100,0.75,ID,1712363912
290,nakano,36.75,138.3667,286.9,74,98,1.98,JP,1712363912
291,el sauzal de rodriguez,31.9,-116.6833,285.6,68,30,9.85,MX,1712363912
292,aswan,24.0934,32.907,298.58,14,0,5.74,EG,1712363912
293,tambopata,-12.7333,-69.1833,298.57,94,100,1.27,PE,1712363912
294,lubang,13.8584,120.124,300.54,79,8,8.05,PH,1712363913
295,geraldton,-28.7667,114.6,294.38,83,75,2.57,AU,1712363913
296,kidal,18.4411,1.4078,301.42,7,0,3.68,ML,1712363913
297,franceville,-1.6333,13.5836,294.98,98,100,1.32,GA,1712363913
298,mongo,12.1844,18.693,305.16,20,100,2.0,TD,1712363913
299,sao vicente,-23.9631,-46.3919,299.41,26,5,1.06,BR,1712363408
300,tocopilla,-22.092,-70.1979,294.65,79,58,3.52,CL,1712363913
301,baotou,40.6522,109.8222,285.57,23,1,1.4,CN,1712363914
302,slutsk,53.0274,27.5597,280.72,92,100,2.99,BY,1712363914
303,moramanga,-18.9333,48.2,291.56,96,86,0.49,MG,1712363914
304,tyukhtet,56.5389,89.3011,275.71,99,100,2.02,RU,1712363914
305,sangueya,10.7,-14.3667,297.49,89,100,2.24,GN,1712363914
306,farasan,16.7022,42.1183,302.17,74,100,0.49,SA,1712363914
307,baidoa,3.1138,43.6498,298.15,82,26,4.76,SO,1712363914
308,tobelo,1.7284,128.0095,300.94,84,95,3.14,ID,1712363914
309,anadyr,64.75,177.4833,256.43,77,0,3.0,RU,1712363915
310,kalaleh,37.3807,55.4916,283.93,82,0,0.0,IR,1712363915
311,carutapera,-1.195,-46.02,298.65,92,55,2.76,BR,1712363915
312,nova sintra,14.8667,-24.7167,296.53,77,89,3.11,CV,1712363915
313,egilsstadir,65.2653,-14.3948,268.1,86,100,2.06,IS,1712363915
314,morehead city,34.7229,-76.726,288.15,69,75,4.63,US,1712363915
315,ankang,32.68,109.0172,288.52,75,100,0.51,CN,1712363915
316,kuala kangsar,4.7667,100.9333,299.11,93,10,0.95,MY,1712363915
317,portrush,55.1959,-6.6493,283.49,92,100,10.56,GB,1712363916
318,peniche,39.3558,-9.3811,291.64,87,100,5.53,PT,1712363916
319,sydney,-33.8679,151.2073,298.88,71,20,4.63,AU,1712363399
320,toulepleu guere,6.574,-8.4259,296.41,98,100,1.15,CI,1712363916
321,labytnangi,66.6572,66.4183,255.03,77,85,5.73,RU,1712363916
322,portland,45.5234,-122.6762,284.64,77,75,2.57,US,1712363620
323,trinity beach,-16.7888,145.6968,306.51,74,99,3.09,AU,1712363917
324,klyuchi,52.2667,79.1667,280.68,73,74,2.22,RU,1712363917
325,luanco,43.6152,-5.7934,294.86,60,100,3.76,ES,1712363917
326,oum hadjer,13.2954,19.6966,304.36,9,96,3.57,TD,1712363917
327,remire-montjoly,4.9167,-52.2667,301.17,83,75,4.63,GF,1712363917
328,belmonte,-15.8631,-38.8828,298.7,84,0,2.9,BR,1712363917
329,gargalianoi,37.0667,21.6333,287.79,69,12,2.45,GR,1712363917
330,ghat,24.9647,10.1728,295.3,10,0,0.79,LY,1712363918
331,villa canas,-34.0057,-61.6076,290.34,81,0,3.72,AR,1712363918
332,iguape,-24.7081,-47.5553,297.43,86,49,3.19,BR,1712363918
333,kone,-21.0595,164.8658,304.31,55,83,3.62,NC,1712363918
334,dadukou,26.5479,101.7054,293.55,41,5,0.8,CN,1712363918
335,fuzesabony,47.75,20.4167,288.96,82,100,2.21,HU,1712363918
336,batticaloa,7.7102,81.6924,299.24,85,100,1.4,LK,1712363918
337,zmeinogorsk,51.1567,82.195,278.02,97,90,2.07,RU,1712363919
338,mount pearl,47.5166,-52.7813,271.52,94,100,6.17,CA,1712363649
339,ketchikan,55.3422,-131.6461,278.41,87,100,5.14,US,1712363707
340,solnechnyy,50.7214,136.6319,272.06,66,100,5.47,RU,1712363919
341,yuzhno-kurilsk,44.0306,145.8556,278.91,62,0,4.81,RU,1712363919
342,kodinsk,58.6881,99.1844,271.17,94,97,2.15,RU,1712363919
343,kununurra,-15.7667,128.7333,301.14,51,100,3.6,AU,1712363794
344,hazorasp,41.3194,61.0742,282.06,64,0,3.12,UZ,1712363920
345,palikir - national government center,6.9248,158.1611,303.62,66,75,5.14,FM,1712363920
346,karachi,24.9056,67.0822,297.05,53,0,2.57,PK,1712363901
347,la tuque,47.4334,-72.7824,277.29,70,100,4.63,CA,1712363920
348,kanel,15.4916,-13.1763,308.15,26,0,5.14,SN,1712363920
349,fisterra,42.9049,-9.2629,286.34,92,100,14.4,ES,1712363920
350,tera,14.0078,0.7531,304.44,12,32,2.49,NE,1712363920
351,dogubayazit,39.5469,44.0842,281.72,70,100,1.62,TR,1712363920
352,verkhnevilyuysk,63.4453,120.3167,255.41,91,100,1.75,RU,1712363921
353,maintirano,-18.0667,44.0167,299.86,84,0,3.89,MG,1712363921
354,west end,26.6833,-78.9667,294.14,41,0,2.3,BS,1712363921
355,kiruna,67.8557,20.2251,262.66,79,100,3.6,SE,1712363921
356,troitsk,54.0979,61.5773,277.6,94,100,1.34,RU,1712363921
357,boysun,38.2061,67.1986,283.41,62,100,2.73,UZ,1712363921
358,namibe,-15.1961,12.1522,296.61,72,100,2.28,AO,1712363921
359,banda aceh,5.5577,95.3222,300.73,78,100,3.43,ID,1712363921
360,kikwit,-5.041,18.8162,294.31,94,100,0.5,CD,1712363922
361,sen monorom,12.45,107.2,299.37,65,96,1.26,KH,1712363922
362,nouadhibou,20.931,-17.0347,291.07,92,99,8.0,MR,1712363922
363,tshabong,-26.05,22.45,296.2,41,14,2.66,BW,1712363922
364,puerto baquerizo moreno,-0.9,-89.6,297.3,85,96,4.12,EC,1712363922
365,hasaki,35.7333,140.8333,285.53,91,100,2.92,JP,1712363922
366,wewak,-3.5534,143.6268,301.9,79,99,0.54,PG,1712363923
367,mahina,-17.5065,-149.489,304.02,74,40,5.66,PF,1712363923
368,mitsamiouli,-11.3847,43.2844,301.49,78,41,3.35,KM,1712363923
369,severo-yeniseyskiy,60.3725,93.0408,271.25,99,100,0.89,RU,1712363923
370,paka,4.6374,103.4368,296.11,94,20,0.0,MY,1712363923
371,kokstad,-30.5472,29.4241,285.35,98,100,1.54,ZA,1712363923
372,fish town,5.1964,-7.8756,296.92,98,100,1.39,LR,1712363923
373,puerto deseado,-47.7503,-65.8938,287.61,45,100,8.32,AR,1712363923
374,plouzane,48.3833,-4.6167,289.33,63,0,8.75,FR,1712363924
375,santana,-0.0583,-51.1817,302.25,84,0,2.57,BR,1712363924
376,saint-philippe,-21.3585,55.7679,297.92,86,7,0.85,RE,1712363924
377,rajin,42.2489,130.3003,285.54,35,0,2.38,KP,1712363924
378,lubny,50.0163,32.9969,281.71,54,100,3.49,UA,1712363764
379,zhangye,38.9342,100.4517,283.11,47,95,1.91,CN,1712363675
380,antonio enes,-16.2325,39.9086,299.88,83,0,0.88,MZ,1712363924
381,amos,48.5669,-78.1162,274.33,90,100,3.94,CA,1712363924
382,la'ie,21.6477,-157.9253,299.13,88,47,4.47,US,1712363925
383,balnearia,-31.0088,-62.6673,297.43,69,100,4.15,AR,1712363925
384,hanceville,34.0607,-86.7675,286.83,77,10,2.52,US,1712363925
385,akobo,7.4344,3.9497,296.0,90,100,2.47,NG,1712363925
386,bati,11.1833,40.0167,291.66,82,98,1.72,ET,1712363925
387,gorontalo,0.5412,123.0595,304.54,63,100,0.62,ID,1712363925
388,ebon,4.582,168.6964,300.2,82,99,7.76,MH,1712363925
389,i-n-salah,27.1935,2.4607,302.07,10,0,10.86,DZ,1712363925
390,lodja,-3.4833,23.4333,293.65,94,100,1.04,CD,1712363926
391,moyale,3.5167,39.0584,292.47,90,99,1.36,KE,1712363926
392,newman,37.3138,-121.0208,286.09,71,16,2.24,US,1712363926
393,freetown,8.484,-13.2299,300.99,78,40,3.09,SL,1712363926
394,saint-pierre,-21.3393,55.4781,297.97,83,0,2.06,RE,1712363926
395,palu,-0.8917,119.8707,304.91,60,56,0.47,ID,1712363926
396,ulanhot,46.0833,122.0833,282.82,39,10,7.25,CN,1712363926
397,fomboni,-12.28,43.7425,302.63,76,93,6.45,KM,1712363926
398,luderitz,-26.6481,15.1594,287.77,78,100,7.91,NA,1712363927
399,ocean shores,46.9737,-124.1563,285.62,67,0,6.17,US,1712363927
400,yarmouth,41.7057,-70.2286,279.41,74,100,7.6,US,1712363927
401,anchorage,61.2181,-149.9003,274.81,89,100,4.12,US,1712363792
402,dainville,50.281,2.726,288.55,86,100,5.82,FR,1712363927
403,motueka,-41.1333,173.0167,292.65,61,29,2.71,NZ,1712363927
404,dekina,7.6948,7.0222,299.47,84,100,2.69,NG,1712363927
405,taos,36.4072,-105.5731,291.37,15,75,11.83,US,1712363766
406,tromso,69.6496,18.957,267.16,58,100,4.12,NO,1712363702
407,the dalles,45.5946,-121.1787,285.67,51,0,8.75,US,1712363737
408,ola,59.5833,151.2833,267.12,74,29,0.79,RU,1712363928
409,sirte,31.2089,16.5887,289.67,74,0,3.59,LY,1712363928
410,ploneour-lanvern,47.9,-4.2833,289.33,67,0,8.23,FR,1712363928
411,saipan,15.1355,145.701,300.54,89,40,7.2,MP,1712363928
412,ailuk,10.2197,169.9797,300.29,74,96,8.72,MH,1712363928
413,angaur state,6.906,134.13,301.27,74,35,9.6,PW,1712363929
414,merta,26.65,74.0333,296.49,34,97,0.61,IN,1712363929
415,khambhaliya,22.2072,69.6683,298.14,71,100,3.65,IN,1712363929
416,tambacounda,13.7539,-13.7586,307.18,43,0,6.17,SN,1712363929
417,waiuku,-37.25,174.75,294.09,75,98,0.3,NZ,1712363907
418,tommot,58.9564,126.2925,259.82,90,100,4.51,RU,1712363929
419,umba,66.6871,34.3429,266.97,84,100,4.69,RU,1712363929
420,coahuayana de hidalgo,18.7,-103.6583,295.6,63,57,1.55,MX,1712363929
421,iskateley,67.6803,53.1512,259.83,93,59,4.47,RU,1712363930
422,sakchu-up,40.3894,125.0467,285.9,39,0,2.69,KP,1712363930
423,jose de freitas,-4.7564,-42.5756,297.88,95,100,1.72,BR,1712363674
424,aketi,2.7388,23.7833,295.37,100,100,1.05,CD,1712363930
425,sapucaia,-29.8333,-51.15,293.92,88,0,3.09,BR,1712363930
426,pacific grove,36.6177,-121.9166,286.6,65,40,7.2,US,1712363930
427,luganville,-15.5333,167.1667,300.87,86,100,5.34,VU,1712363930
428,saint-francois,46.4154,3.9054,288.84,41,0,6.69,FR,1712363930
429,berdigestyakh,62.0989,126.6992,256.03,86,100,3.46,RU,1712363930
430,cabedelo,-6.9811,-34.8339,299.52,80,24,3.99,BR,1712363931
431,rock springs,41.5875,-109.2029,285.84,20,75,9.77,US,1712363639
432,margate,51.3813,1.3862,288.64,85,100,4.47,GB,1712363931
433,namtsy,62.7161,129.6658,261.04,79,76,4.68,RU,1712363931
434,thisted,56.9552,8.6949,281.59,97,84,3.53,DK,1712363931
435,aguadas,5.6116,-75.4562,287.21,94,88,1.91,CO,1712363931
436,porbandar,21.6422,69.6093,298.87,72,100,4.21,IN,1712363931
437,missoula,47.0166,-113.8009,275.73,83,100,1.85,US,1712363302
438,broken hill,-31.95,141.4333,291.44,61,96,7.75,AU,1712363699
439,saskatoon,52.1168,-106.6345,285.14,46,100,4.63,CA,1712363471
440,magadan,59.5667,150.8,266.78,78,42,0.73,RU,1712363729
441,buala,-8.145,159.5921,303.25,73,39,2.67,SB,1712363932
442,pangkalanbuun,-2.6833,111.6167,299.25,91,100,0.77,ID,1712363932
443,cole harbour,44.6724,-63.4751,276.86,92,100,0.89,CA,1712363932
444,adrar,20.5022,-10.0711,300.21,13,9,3.08,MR,1712363932
445,colle di val d'elsa,43.4151,11.1314,286.74,100,41,1.8,IT,1712363933
446,tughyl,47.7252,84.2063,276.8,69,19,0.8,KZ,1712363933
447,nizhnevartovsk,60.9344,76.5531,275.16,80,0,4.0,RU,1712363933
448,island harbour,50.724,-1.2758,287.76,87,100,7.15,GB,1712363933
449,lucapa,-8.4192,20.7447,292.85,96,100,0.07,AO,1712363933
450,kertih,4.5141,103.4483,296.16,94,20,0.0,MY,1712363933
451,neftcala,39.3742,49.2472,285.16,75,100,3.02,AZ,1712363933
452,kudahuvadhoo,2.6708,72.8944,302.0,75,100,2.01,MV,1712363933
453,balsas,-7.5325,-46.0356,298.21,91,78,0.99,BR,1712363350
454,port hedland,-20.3167,118.5667,301.18,24,100,5.66,AU,1712363934
455,revda,56.801,59.9303,272.62,88,100,3.59,RU,1712363934
456,ciudad sabinas hidalgo,26.5,-100.1667,299.45,40,100,7.83,MX,1712363934
457,zlocieniec,53.5329,16.0113,282.53,92,13,4.76,PL,1712363934
458,mahibadhoo,3.7833,72.9667,302.1,73,100,1.62,MV,1712363934
459,takoradi,4.8845,-1.7554,300.26,85,60,2.17,GH,1712363934
460,tura,25.5198,90.2201,296.96,87,15,3.47,IN,1712363934
461,tafalla,42.5269,-1.6745,287.64,41,71,5.56,ES,1712363934
462,chu,43.5983,73.7614,283.13,65,100,1.52,KZ,1712363935
463,kutum,14.2,24.6667,296.74,17,100,4.11,SD,1712363935
464,smolyaninovo,43.2956,132.4675,282.85,62,4,3.74,RU,1712363935
465,areia branca,-4.9561,-37.1369,300.75,78,43,4.32,BR,1712363935
466,qarazhal,48.0078,70.7903,280.84,46,99,2.64,KZ,1712363935
467,manokwari,-0.8667,134.0833,300.67,81,98,2.06,ID,1712363821
468,settat,33.0007,-7.6204,292.05,23,81,4.73,MA,1712363935
469,cheremushki,52.8356,91.3944,280.25,87,100,1.37,RU,1712363935
470,tonghae,37.5439,129.1069,287.5,58,100,1.49,KR,1712363935
471,vadso,70.0744,29.7487,267.24,58,20,7.72,NO,1712363936
472,cooper's town,26.8667,-77.5167,294.99,46,0,3.73,BS,1712363936
473,sonoita,31.85,-112.8333,288.51,33,99,9.61,MX,1712363936
474,pul-e khumri,35.9446,68.7151,288.91,28,70,2.6,AF,1712363936
475,kiknur,57.3034,47.2011,268.79,64,48,5.9,RU,1712363936
476,maitum,6.0392,124.4986,303.64,57,100,2.19,PH,1712363936
477,labuan,5.2767,115.2417,302.35,89,20,0.51,MY,1712363936
478,colac,-38.3333,143.5833,291.58,79,94,2.83,AU,1712363936
479,murray bridge,-35.1167,139.2667,293.51,51,40,3.62,AU,1712363937
480,pingdingshan,33.7385,113.3012,288.69,64,53,2.25,CN,1712363937
481,muana,-1.5283,-49.2167,297.86,96,100,2.31,BR,1712363937
482,kokpekty,48.75,82.4,274.53,67,100,0.81,KZ,1712363937
483,chenzhou,25.8,113.0333,287.19,98,100,2.02,CN,1712363937
484,salym,60.0625,71.4789,271.68,91,100,4.68,RU,1712363937
485,aligudarz,33.4006,49.6949,282.13,56,0,0.69,IR,1712363938
486,katsuren-haebaru,26.3369,127.8719,295.36,95,100,3.09,JP,1712363938
487,scottburgh,-30.2867,30.7532,292.18,90,100,4.54,ZA,1712363938
488,waitara,-38.925,174.25,295.09,60,49,2.37,NZ,1712363938
489,guerrero negro,27.9769,-114.0611,289.03,51,100,9.36,MX,1712363938
490,galle,6.0367,80.217,299.5,87,86,1.52,LK,1712363938
491,dunedin,-45.8742,170.5036,288.04,72,40,2.68,NZ,1712363938
492,kuta,-8.7233,115.1723,301.12,83,20,4.12,ID,1712363938
493,kailua-kona,19.6406,-155.9956,301.13,82,40,6.69,US,1712363939
494,barcelos,41.5388,-8.6151,291.23,88,100,8.6,PT,1712363939
495,rodez,44.5,2.5833,286.97,47,0,8.23,FR,1712363939
496,yamada,39.4667,141.95,284.5,66,27,3.63,JP,1712363939
497,carlsbad,33.1581,-117.3506,288.2,64,75,7.2,US,1712363654
498,emerald,-23.5333,148.1667,293.34,99,100,4.31,AU,1712363711
499,malango,-2.9627,119.9001,298.83,76,57,1.06,ID,1712363940
500,oruro,-17.9833,-67.15,284.19,69,99,4.88,BO,1712363671
501,tsiombe,-25.3,45.4833,295.53,80,5,1.71,MG,1712363940
502,kerema,-7.9631,145.7785,302.69,72,100,3.56,PG,1712363940
503,labrador city,52.9463,-66.9114,270.1,75,75,4.12,CA,1712363940
504,musan-up,42.2261,129.2078,287.36,33,0,4.38,KP,1712363940
505,kirakira,-10.4544,161.9205,301.94,83,38,2.5,SB,1712363940
506,summerside,46.3959,-63.7876,278.22,93,100,3.6,CA,1712363941
507,ixtapa,20.7,-105.2,296.05,73,75,5.66,MX,1712363941
508,dawukou,39.0419,106.3958,286.04,32,70,0.94,CN,1712363941
509,la almunia de dona godina,41.4767,-1.3745,288.5,54,13,1.85,ES,1712363941
510,ankazoabo,-22.2833,44.5167,294.34,73,0,2.44,MG,1712363941
511,guilin,25.2819,110.2864,288.21,91,100,3.38,CN,1712363942
512,silver city,32.7701,-108.2803,289.47,26,67,8.49,US,1712363942
513,axim,4.8699,-2.2405,300.5,84,100,2.02,GH,1712363942
514,papao,-17.75,-149.55,303.97,75,53,1.95,PF,1712363942
515,moyynkum,44.2914,72.9469,283.59,69,100,2.84,KZ,1712363942
516,asaita,11.5636,41.4394,300.1,64,64,3.92,ET,1712363942
517,dobrush,52.4089,31.3237,281.24,87,100,2.31,BY,1712363943
518,port alfred,-33.5906,26.891,288.81,89,100,5.02,ZA,1712363943
519,palencia,42.4167,-4.5,289.7,43,100,11.42,ES,1712363943
520,la ronge,55.1001,-105.2842,284.29,28,40,5.66,CA,1712363943
521,soldato-aleksandrovskoye,44.2653,43.7561,283.27,74,75,3.7,RU,1712363943
522,coxim,-18.5067,-54.76,299.74,67,6,1.11,BR,1712363943
523,rongelap,11.1635,166.8941,300.33,74,28,9.37,MH,1712363944
524,korneuburg,48.35,16.3333,290.61,79,100,1.6,AT,1712363944
525,khamis mushait,18.3064,42.7292,289.49,88,0,0.0,SA,1712363944
526,kolonia,50.9333,6.95,288.68,81,20,3.09,DE,1712363886
527,essaouira,31.5125,-9.77,293.87,52,100,0.51,MA,1712363944
528,muang phon-hong,18.4928,102.4172,304.57,40,11,0.89,LA,1712363944
529,togur,58.3631,82.8265,276.56,95,11,2.24,RU,1712363944
530,forster,-32.1667,152.5167,299.42,68,0,1.29,AU,1712363945
531,akureyri,65.6835,-18.0878,270.11,68,100,2.57,IS,1712363945
532,sihanoukville,10.6093,103.5296,301.12,83,20,1.54,KH,1712363945
533,soria,41.6667,-2.6667,285.43,54,78,2.78,ES,1712363945
534,yamoussoukro,6.8206,-5.2767,300.09,83,0,3.09,CI,1712363945
535,sambava,-14.2667,50.1667,297.93,90,37,3.91,MG,1712363945
536,volchikha,52.0333,80.3833,280.92,72,29,1.79,RU,1712363946
537,katabu,-4.9333,122.5167,302.94,74,75,0.56,ID,1712363946
538,patterson,37.4716,-121.1297,286.01,71,10,2.87,US,1712363946
539,weno,7.4515,151.8468,303.12,74,75,4.63,FM,1712363946
540,talara,-4.5772,-81.2719,297.57,73,75,7.2,PE,1712363649
541,flying fish cove,-10.4217,105.6791,298.97,94,51,1.54,CX,1712363946
542,evanston,42.0411,-87.6901,280.44,52,20,5.66,US,1712363763
543,xacmaz,41.4635,48.806,284.3,55,100,2.01,AZ,1712363946
544,tamalous,36.8376,6.6402,291.14,53,84,3.64,DZ,1712363947
545,summerville,33.0185,-80.1757,291.12,55,0,2.57,US,1712363654
546,as sulayyil,20.4607,45.5779,296.29,31,100,5.78,SA,1712363947
547,toliara,-23.35,43.6667,296.58,86,0,1.99,MG,1712363795
548,menongue,-14.6585,17.691,291.16,97,97,1.41,AO,1712363947
549,cabo san lucas,22.8909,-109.9124,301.76,53,40,5.66,MX,1712363153
550,aral,40.5156,81.2636,282.94,46,40,6.52,CN,1712363947
551,plastun,44.7561,136.2939,283.79,33,1,2.37,RU,1712363948
552,bulgan,48.8125,103.5347,279.15,55,12,1.44,MN,1712363948
553,bodenwerder,51.9716,9.5193,287.99,95,100,2.03,DE,1712363948
554,turpan,42.9333,89.1667,287.48,25,36,1.48,CN,1712363948
555,massawa,15.6097,39.45,302.12,69,13,1.81,ER,1712363948
556,sullivan,36.5168,-82.5332,280.58,73,100,3.09,US,1712363948
557,shingu,33.7333,135.9833,289.55,78,100,2.42,JP,1712363948
558,akjoujt,19.6969,-14.4164,297.71,38,5,5.1,MR,1712363948
559,port isabel,26.0734,-97.2086,298.19,73,0,10.8,US,1712363657
560,mil'kovo,55.6078,37.7956,274.37,69,100,3.15,RU,1712363949
561,wanning,18.8003,110.3967,300.61,75,100,4.26,CN,1712363949
